id;CIDADE;ESTADO;UF;REGIÃO;location;Latitude;Longitude
1100015;Alta Floresta D'Oeste;Rondônia;RO;Norte;Alta Floresta d'Oeste, Região Geográfica Imediata de Cacoal, Região Geográfica Intermediária de Ji-Paraná, Rondônia, Região Norte, 76954-000, Brasil;-11.9296917;-61.9961284
1100023;Ariquemes;Rondônia;RO;Norte;Ariquemes, Região Geográfica Imediata de Ariquemes, Região Geográfica Intermediária de Porto Velho, Rondônia, Região Norte, Brasil;-9.9076522;-63.033069
1100031;Cabixi;Rondônia;RO;Norte;Cabixi, Região Geográfica Imediata de Vilhena, Região Geográfica Intermediária de Ji-Paraná, Rondônia, Região Norte, Brasil;-13.4940499;-60.545110240525375
1100049;Cacoal;Rondônia;RO;Norte;Cacoal, Região Geográfica Imediata de Cacoal, Região Geográfica Intermediária de Ji-Paraná, Rondônia, Região Norte, Brasil;-11.4333;-61.4420502
1100056;Cerejeiras;Rondônia;RO;Norte;Cerejeiras, Região Geográfica Imediata de Vilhena, Região Geográfica Intermediária de Ji-Paraná, Rondônia, Região Norte, 76997-000, Brasil;-13.1924248;-60.81924455857779
1100064;Colorado do Oeste;Rondônia;RO;Norte;Colorado do Oeste, Região Geográfica Imediata de Vilhena, Região Geográfica Intermediária de Ji-Paraná, Rondônia, Região Norte, 76993-000, Brasil;-13.12109915;-60.54207007205348
1100072;Corumbiara;Rondônia;RO;Norte;Corumbiara, Região Geográfica Imediata de Vilhena, Região Geográfica Intermediária de Ji-Paraná, Rondônia, Região Norte, Brasil;-13.0002162;-60.94320578255167
1100080;Costa Marques;Rondônia;RO;Norte;Costa Marques, Região Geográfica Imediata de Ji-Paraná, Região Geográfica Intermediária de Ji-Paraná, Rondônia, Região Norte, Brasil;-12.4367165;-64.2279765
1100098;Espigão D'Oeste;Rondônia;RO;Norte;Espigão d'Oeste, Região Geográfica Imediata de Cacoal, Região Geográfica Intermediária de Ji-Paraná, Rondônia, Região Norte, 76974-000, Brasil;-11.532175;-61.0130935
1100106;Guajará-Mirim;Rondônia;RO;Norte;Guajará-Mirim, Região Geográfica Imediata de Porto Velho, Região Geográfica Intermediária de Porto Velho, Rondônia, Região Norte, Brasil;-10.7804239;-65.3327825
1100114;Jaru;Rondônia;RO;Norte;Jaru, Região Geográfica Imediata de Jaru, Região Geográfica Intermediária de Porto Velho, Rondônia, Região Norte, 76890-000, Brasil;-10.431826;-62.478769
1100122;Ji-Paraná;Rondônia;RO;Norte;Ji-Paraná, Região Geográfica Imediata de Ji-Paraná, Região Geográfica Intermediária de Ji-Paraná, Rondônia, Região Norte, Brasil;-10.8778148;-61.9277854
1100130;Machadinho D'Oeste;Rondônia;RO;Norte;Machadinho d'Oeste, Região Geográfica Imediata de Jaru, Região Geográfica Intermediária de Porto Velho, Rondônia, Região Norte, 76868-000, Brasil;-9.4240851;-61.9923719
1100148;Nova Brasilândia D'Oeste;Rondônia;RO;Norte;Nova Brasilândia d'Oeste, Região Geográfica Imediata de Cacoal, Região Geográfica Intermediária de Ji-Paraná, Rondônia, Região Norte, Brasil;-11.722692;-62.315545
1100155;Ouro Preto do Oeste;Rondônia;RO;Norte;Ouro Preto do Oeste, Região Geográfica Imediata de Ji-Paraná, Região Geográfica Intermediária de Ji-Paraná, Rondônia, Região Norte, 76920-000, Brasil;-10.717914;-62.2566611
1100189;Pimenta Bueno;Rondônia;RO;Norte;Pimenta Bueno, Região Geográfica Imediata de Cacoal, Região Geográfica Intermediária de Ji-Paraná, Rondônia, Região Norte, 76970-000, Brasil;-11.6767868;-61.1863902
1100205;Porto Velho;Rondônia;RO;Norte;Porto Velho, Região Geográfica Imediata de Porto Velho, Região Geográfica Intermediária de Porto Velho, Rondônia, Região Norte, Brasil;-8.7494525;-63.8735438
1100254;Presidente Médici;Rondônia;RO;Norte;Presidente Médici, Região Geográfica Imediata de Ji-Paraná, Região Geográfica Intermediária de Ji-Paraná, Rondônia, Região Norte, 76916-000, Brasil;-11.1686638;-61.9057627
1100262;Rio Crespo;Rondônia;RO;Norte;Rio Crespo, Região Geográfica Imediata de Ariquemes, Região Geográfica Intermediária de Porto Velho, Rondônia, Região Norte, Brasil;-9.6876925;-62.83609371666667
1100288;Rolim de Moura;Rondônia;RO;Norte;Rolim de Moura, Região Geográfica Imediata de Cacoal, Região Geográfica Intermediária de Ji-Paraná, Rondônia, Região Norte, 76940-000, Brasil;-11.727071;-61.771411
1100296;Santa Luzia D'Oeste;Rondônia;RO;Norte;Santa Luzia d'Oeste, Região Geográfica Imediata de Cacoal, Região Geográfica Intermediária de Ji-Paraná, Rondônia, Região Norte, 76950-000, Brasil;-11.9064424;-61.7797356
1100304;Vilhena;Rondônia;RO;Norte;Vilhena, Região Geográfica Imediata de Vilhena, Região Geográfica Intermediária de Ji-Paraná, Rondônia, Região Norte, Brasil;-12.7368536;-60.1465555
1100320;São Miguel do Guaporé;Rondônia;RO;Norte;São Miguel do Guaporé, Região Geográfica Imediata de Ji-Paraná, Região Geográfica Intermediária de Ji-Paraná, Rondônia, Região Norte, 78932-000, Brasil;-11.6951466;-62.7195739
1100338;Nova Mamoré;Rondônia;RO;Norte;Nova Mamoré, Região Geográfica Imediata de Porto Velho, Região Geográfica Intermediária de Porto Velho, Rondônia, Região Norte, Brasil;-10.4104864;-65.3313761
1100346;Alvorada D'Oeste;Rondônia;RO;Norte;Alvorada d'Oeste, Região Geográfica Imediata de Ji-Paraná, Região Geográfica Intermediária de Ji-Paraná, Rondônia, Região Norte, 76930-000, Brasil;-11.346271;-62.284697
1100379;Alto Alegre dos Parecis;Rondônia;RO;Norte;Alto Alegre dos Parecis, Região Geográfica Imediata de Cacoal, Região Geográfica Intermediária de Ji-Paraná, Rondônia, Região Norte, Brasil;-12.1314515;-61.856265
1100403;Alto Paraíso;Rondônia;RO;Norte;Alto Paraíso, Região Geográfica Imediata de Ariquemes, Região Geográfica Intermediária de Porto Velho, Rondônia, Região Norte, Brasil;-9.725454899999999;-63.31150062807788
1100452;Buritis;Rondônia;RO;Norte;Buritis, Região Geográfica Imediata de Ariquemes, Região Geográfica Intermediária de Porto Velho, Rondônia, Região Norte, Brasil;-10.2054937;-63.8281954
1100502;Novo Horizonte do Oeste;Rondônia;RO;Norte;Novo Horizonte do Oeste, Região Geográfica Imediata de Cacoal, Região Geográfica Intermediária de Ji-Paraná, Rondônia, Região Norte, Brasil;-11.7105311;-61.9993277
1100601;Cacaulândia;Rondônia;RO;Norte;Cacaulândia, Região Geográfica Imediata de Ariquemes, Região Geográfica Intermediária de Porto Velho, Rondônia, Região Norte, Brasil;-10.3380043;-62.9007231
1100700;Campo Novo de Rondônia;Rondônia;RO;Norte;Campo Novo de Rondônia, Região Geográfica Imediata de Ariquemes, Região Geográfica Intermediária de Porto Velho, Rondônia, Região Norte, Brasil;-10.5704235;-63.6199511
1100809;Candeias do Jamari;Rondônia;RO;Norte;Candeias do Jamari, Região Geográfica Imediata de Porto Velho, Região Geográfica Intermediária de Porto Velho, Rondônia, Região Norte, 78938-000, Brasil;-8.7949939;-63.7018851
1100908;Castanheiras;Rondônia;RO;Norte;Castanheiras, Região Geográfica Imediata de Cacoal, Região Geográfica Intermediária de Ji-Paraná, Rondônia, Região Norte, Brasil;-11.4277212;-61.9486802
1100924;Chupinguaia;Rondônia;RO;Norte;Chupinguaia, Região Geográfica Imediata de Vilhena, Região Geográfica Intermediária de Ji-Paraná, Rondônia, Região Norte, Brasil;-12.5528918;-60.9027819
1100940;Cujubim;Rondônia;RO;Norte;Cujubim, Região Geográfica Imediata de Ariquemes, Região Geográfica Intermediária de Porto Velho, Rondônia, Região Norte, Brasil;-9.3687919;-62.5832107
1101005;Governador Jorge Teixeira;Rondônia;RO;Norte;Governador Jorge Teixeira, Região Geográfica Imediata de Jaru, Região Geográfica Intermediária de Porto Velho, Rondônia, Região Norte, Brasil;-10.6140224;-62.7326412
1101104;Itapuã do Oeste;Rondônia;RO;Norte;Itapuã do Oeste, Região Geográfica Imediata de Porto Velho, Região Geográfica Intermediária de Porto Velho, Rondônia, Região Norte, 76861-000, Brasil;-9.128;-63.123707762557075
1101203;Ministro Andreazza;Rondônia;RO;Norte;Ministro Andreazza, Região Geográfica Imediata de Cacoal, Região Geográfica Intermediária de Ji-Paraná, Rondônia, Região Norte, Brasil;-11.1981045;-61.5167422
1101302;Mirante da Serra;Rondônia;RO;Norte;Mirante da Serra, Região Geográfica Imediata de Ji-Paraná, Região Geográfica Intermediária de Ji-Paraná, Rondônia, Região Norte, 76926-000, Brasil;-11.0321694;-62.6717012
1101401;Monte Negro;Rondônia;RO;Norte;Monte Negro, Região Geográfica Imediata de Ariquemes, Região Geográfica Intermediária de Porto Velho, Rondônia, Região Norte, Brasil;-10.2603463;-63.2986252
1101435;Nova União;Rondônia;RO;Norte;Nova União, Região Geográfica Imediata de Ji-Paraná, Região Geográfica Intermediária de Ji-Paraná, Rondônia, Região Norte, Brasil;-10.91591;-62.5570096
1101450;Parecis;Rondônia;RO;Norte;Parecis, Região Geográfica Imediata de Cacoal, Região Geográfica Intermediária de Ji-Paraná, Rondônia, Região Norte, Brasil;-12.1810712;-61.6037558
1101468;Pimenteiras do Oeste;Rondônia;RO;Norte;Pimenteiras do Oeste, Região Geográfica Imediata de Vilhena, Região Geográfica Intermediária de Ji-Paraná, Rondônia, Região Norte, Brasil;-13.482271;-61.047052
1101476;Primavera de Rondônia;Rondônia;RO;Norte;Primavera de Rondônia, Região Geográfica Imediata de Cacoal, Região Geográfica Intermediária de Ji-Paraná, Rondônia, Região Norte, Brasil;-11.829456;-61.315336
1101484;São Felipe D'Oeste;Rondônia;RO;Norte;São Felipe d'Oeste, Região Geográfica Imediata de Cacoal, Região Geográfica Intermediária de Ji-Paraná, Rondônia, Região Norte, Brasil;-11.9107798;-61.5130058
1101492;São Francisco do Guaporé;Rondônia;RO;Norte;São Francisco do Guaporé, Região Geográfica Imediata de Ji-Paraná, Região Geográfica Intermediária de Ji-Paraná, Rondônia, Região Norte, Brasil;-12.0609982;-63.5668307
1101500;Seringueiras;Rondônia;RO;Norte;Seringueiras, Região Geográfica Imediata de Ji-Paraná, Região Geográfica Intermediária de Ji-Paraná, Rondônia, Região Norte, Brasil;-11.7715738;-63.0346835
1101559;Teixeirópolis;Rondônia;RO;Norte;Teixeirópolis, Região Geográfica Imediata de Ji-Paraná, Região Geográfica Intermediária de Ji-Paraná, Rondônia, Região Norte, 76928-000, Brasil;-10.9336967;-62.2560049
1101609;Theobroma;Rondônia;RO;Norte;Theobroma, Região Geográfica Imediata de Jaru, Região Geográfica Intermediária de Porto Velho, Rondônia, Região Norte, Brasil;-10.246489;-62.3493803
1101708;Urupá;Rondônia;RO;Norte;Urupá, Região Geográfica Imediata de Ji-Paraná, Região Geográfica Intermediária de Ji-Paraná, Rondônia, Região Norte, 76929-000, Brasil;-11.1256535;-62.3704203
1101757;Vale do Anari;Rondônia;RO;Norte;Vale do Anari, Região Geográfica Imediata de Jaru, Região Geográfica Intermediária de Porto Velho, Rondônia, Região Norte, 76867-000, Brasil;-9.8580807;-62.1741423
1101807;Vale do Paraíso;Rondônia;RO;Norte;Vale do Paraíso, Região Geográfica Imediata de Ji-Paraná, Região Geográfica Intermediária de Ji-Paraná, Rondônia, Região Norte, Brasil;-10.4266959;-62.1300904
1200013;Acrelândia;Acre;AC;Norte;Acrelândia, Região Geográfica Imediata de Rio Branco, Região Geográfica Intermediária de Rio Branco, Acre, Região Norte, Brasil;-10.0759167;-67.0526898
1200054;Assis Brasil;Acre;AC;Norte;Assis Brasil, Região Geográfica Imediata de Brasiléia, Região Geográfica Intermediária de Rio Branco, Acre, Região Norte, Brasil;-10.9409203;-69.5672108
1200104;Brasiléia;Acre;AC;Norte;Brasiléia, Região Geográfica Imediata de Brasiléia, Região Geográfica Intermediária de Rio Branco, Acre, Região Norte, Brasil;-11.0010413;-68.7487894
1200138;Bujari;Acre;AC;Norte;Bujari, Região Geográfica Imediata de Rio Branco, Região Geográfica Intermediária de Rio Branco, Acre, Região Norte, Brasil;-9.8309656;-67.9520886
1200179;Capixaba;Acre;AC;Norte;Capixaba, Região Geográfica Imediata de Rio Branco, Região Geográfica Intermediária de Rio Branco, Acre, Região Norte, Brasil;-10.5741345;-67.6759719
1200203;Cruzeiro do Sul;Acre;AC;Norte;Cruzeiro do Sul, Região Geográfica Imediata de Cruzeiro do Sul, Região Geográfica Intermediária de Cruzeiro do Sul, Acre, Região Norte, Brasil;-7.6307956;-72.6703869
1200252;Epitaciolândia;Acre;AC;Norte;Epitaciolândia, Região Geográfica Imediata de Brasiléia, Região Geográfica Intermediária de Rio Branco, Acre, Região Norte, 69934-000, Brasil;-11.0289439;-68.7411519
1200302;Feijó;Acre;AC;Norte;Feijó, Região Geográfica Imediata de Tarauacá, Região Geográfica Intermediária de Cruzeiro do Sul, Acre, Região Norte, Brasil;-8.1648652;-70.3539579
1200328;Jordão;Acre;AC;Norte;Jordão, Região Geográfica Imediata de Tarauacá, Região Geográfica Intermediária de Cruzeiro do Sul, Acre, Região Norte, Brasil;-9.1905396;-71.9484803
1200336;Mâncio Lima;Acre;AC;Norte;Mâncio Lima, Região Geográfica Imediata de Cruzeiro do Sul, Região Geográfica Intermediária de Cruzeiro do Sul, Acre, Região Norte, 69990-000, Brasil;-7.6145911;-72.905264
1200344;Manoel Urbano;Acre;AC;Norte;Manoel Urbano, Região Geográfica Imediata de Sena Madureira, Região Geográfica Intermediária de Rio Branco, Acre, Região Norte, Brasil;-8.838755;-69.2619465
1200351;Marechal Thaumaturgo;Acre;AC;Norte;Marechal Thaumaturgo, Região Geográfica Imediata de Cruzeiro do Sul, Região Geográfica Intermediária de Cruzeiro do Sul, Acre, Região Norte, Brasil;-8.9479792;-72.7872614
1200385;Plácido de Castro;Acre;AC;Norte;Plácido de Castro, Região Geográfica Imediata de Rio Branco, Região Geográfica Intermediária de Rio Branco, Acre, Região Norte, Brasil;-10.3239154;-67.1824196
1200393;Porto Walter;Acre;AC;Norte;Porto Walter, Região Geográfica Imediata de Cruzeiro do Sul, Região Geográfica Intermediária de Cruzeiro do Sul, Acre, Região Norte, Brasil;-8.2687722;-72.7444458
1200401;Rio Branco;Acre;AC;Norte;Rio Branco, Região Geográfica Imediata de Rio Branco, Região Geográfica Intermediária de Rio Branco, Acre, Região Norte, Brasil;-9.9765362;-67.8220778
1200427;Rodrigues Alves;Acre;AC;Norte;Rodrigues Alves, Região Geográfica Imediata de Cruzeiro do Sul, Região Geográfica Intermediária de Cruzeiro do Sul, Acre, Região Norte, 69985-000, Brasil;-7.7380283;-72.6509379
1200435;Santa Rosa do Purus;Acre;AC;Norte;Santa Rosa do Purus, Região Geográfica Imediata de Sena Madureira, Região Geográfica Intermediária de Rio Branco, Acre, Região Norte, Brasil;-9.4354872;-70.4926109
1200450;Senador Guiomard;Acre;AC;Norte;Senador Guiomard, Região Geográfica Imediata de Rio Branco, Região Geográfica Intermediária de Rio Branco, Acre, Região Norte, Brasil;-9.9765;-67.31913961038961
1200500;Sena Madureira;Acre;AC;Norte;Sena Madureira, Região Geográfica Imediata de Sena Madureira, Região Geográfica Intermediária de Rio Branco, Acre, Região Norte, 69940-000, Brasil;-9.0659556;-68.6571058
1200609;Tarauacá;Acre;AC;Norte;Tarauacá, Região Geográfica Imediata de Tarauacá, Região Geográfica Intermediária de Cruzeiro do Sul, Acre, Região Norte, 69970-000, Brasil;-8.1602019;-70.7665368
1200708;Xapuri;Acre;AC;Norte;Xapuri, Região Geográfica Imediata de Brasiléia, Região Geográfica Intermediária de Rio Branco, Acre, Região Norte, Brasil;-10.6511174;-68.5017902
1200807;Porto Acre;Acre;AC;Norte;Porto Acre, Região Geográfica Imediata de Rio Branco, Região Geográfica Intermediária de Rio Branco, Acre, Região Norte, Brasil;-9.5879722;-67.53307
1300029;Alvarães;Amazonas;AM;Norte;Alvarães, Região Geográfica Imediata de Tefé, Região Geográfica Intermediária de Tefé, Amazonas, Região Norte, 69475-000, Brasil;-3.214786;-64.8143124
1300060;Amaturá;Amazonas;AM;Norte;Amaturá, Região Geográfica Imediata de Tabatinga, Região Geográfica Intermediária de Tefé, Amazonas, Região Norte, 69620-000, Brasil;-3.3640509;-68.1994689
1300086;Anamã;Amazonas;AM;Norte;Anamã, Região Geográfica Imediata de Manacapuru, Região Geográfica Intermediária de Manaus, Amazonas, Região Norte, Brasil;-3.5797356;-61.4049996
1300102;Anori;Amazonas;AM;Norte;Anori, Região Geográfica Imediata de Coari, Região Geográfica Intermediária de Manaus, Amazonas, Região Norte, Brasil;-3.7435254;-61.6605203
1300144;Apuí;Amazonas;AM;Norte;Apuí, Região Geográfica Imediata de Manicoré, Região Geográfica Intermediária de Lábrea, Amazonas, Região Norte, 69265-000, Brasil;-7.1940195;-59.8830192
1300201;Atalaia do Norte;Amazonas;AM;Norte;Atalaia do Norte, Região Geográfica Imediata de Tabatinga, Região Geográfica Intermediária de Tefé, Amazonas, Região Norte, 69650-000, Brasil;-4.3658547;-70.1908742
1300300;Autazes;Amazonas;AM;Norte;Autazes, Região Geográfica Imediata de Manaus, Região Geográfica Intermediária de Manaus, Amazonas, Região Norte, Brasil;-3.5833283;-59.1301518
1300409;Barcelos;Amazonas;AM;Norte;Barcelos, Região Geográfica Imediata de São Gabriel da Cachoeira, Região Geográfica Intermediária de Manaus, Amazonas, Região Norte, Brasil;-0.9729214;-62.925635
1300508;Barreirinha;Amazonas;AM;Norte;Barreirinha, Região Geográfica Imediata de Parintins, Região Geográfica Intermediária de Parintins, Amazonas, Região Norte, Brasil;-2.798863;-57.067897
1300607;Benjamin Constant;Amazonas;AM;Norte;Benjamin Constant, Região Geográfica Imediata de Tabatinga, Região Geográfica Intermediária de Tefé, Amazonas, Região Norte, 69630-000, Brasil;-4.3782748;-70.0290603
1300631;Beruri;Amazonas;AM;Norte;Beruri, Região Geográfica Imediata de Coari, Região Geográfica Intermediária de Manaus, Amazonas, Região Norte, Brasil;-3.9007135;-61.3717319
1300680;Boa Vista do Ramos;Amazonas;AM;Norte;Boa Vista do Ramos, Região Geográfica Imediata de Parintins, Região Geográfica Intermediária de Parintins, Amazonas, Região Norte, Brasil;-2.9716927;-57.5869819
1300706;Boca do Acre;Amazonas;AM;Norte;Boca do Acre, Região Geográfica Imediata de Lábrea, Região Geográfica Intermediária de Lábrea, Amazonas, Região Norte, Brasil;-8.7553487;-67.3930873
1300805;Borba;Amazonas;AM;Norte;Borba, Região Geográfica Imediata de Manaus, Região Geográfica Intermediária de Manaus, Amazonas, Região Norte, 69200-000, Brasil;-4.3934778;-59.5947721
1300839;Caapiranga;Amazonas;AM;Norte;Caapiranga, Região Geográfica Imediata de Manacapuru, Região Geográfica Intermediária de Manaus, Amazonas, Região Norte, Brasil;-3.3188884;-61.2096404
1300904;Canutama;Amazonas;AM;Norte;Canutama, Região Geográfica Imediata de Lábrea, Região Geográfica Intermediária de Lábrea, Amazonas, Região Norte, Brasil;-6.5330019;-64.3834966
1301001;Carauari;Amazonas;AM;Norte;Carauari, Região Geográfica Imediata de Tefé, Região Geográfica Intermediária de Tefé, Amazonas, Região Norte, 69500-000, Brasil;-4.8766426;-66.8961433
1301100;Careiro;Amazonas;AM;Norte;Careiro, Região Geográfica Imediata de Manaus, Região Geográfica Intermediária de Manaus, Amazonas, Região Norte, 69250-000, Brasil;-3.8185277;-60.3616505
1301159;Careiro da Várzea;Amazonas;AM;Norte;Careiro da Várzea, Região Geográfica Imediata de Manaus, Região Geográfica Intermediária de Manaus, Amazonas, Região Norte, Brasil;-3.197024;-59.8259104
1301209;Coari;Amazonas;AM;Norte;Coari, Região Geográfica Imediata de Coari, Região Geográfica Intermediária de Manaus, Amazonas, Região Norte, 69460-000, Brasil;-4.0885957;-63.1431166
1301308;Codajás;Amazonas;AM;Norte;Codajás, Região Geográfica Imediata de Coari, Região Geográfica Intermediária de Manaus, Amazonas, Região Norte, Brasil;-3.8413202;-62.0603444
1301407;Eirunepé;Amazonas;AM;Norte;Eirunepé, Região Geográfica Imediata de Eirunepé, Região Geográfica Intermediária de Tefé, Amazonas, Região Norte, 69880-000, Brasil;-6.6567654;-69.866161
1301506;Envira;Amazonas;AM;Norte;Envira, Região Geográfica Imediata de Eirunepé, Região Geográfica Intermediária de Tefé, Amazonas, Região Norte, Brasil;-7.437889;-70.028143
1301605;Fonte Boa;Amazonas;AM;Norte;Fonte Boa, Região Geográfica Imediata de Tefé, Região Geográfica Intermediária de Tefé, Amazonas, Região Norte, 69670-000, Brasil;-2.55;-66.91321428571428
1301654;Guajará;Amazonas;AM;Norte;Guajará, Região Geográfica Imediata de Eirunepé, Região Geográfica Intermediária de Tefé, Amazonas, Região Norte, Brasil;-7.5455927;-72.5832769
1301704;Humaitá;Amazonas;AM;Norte;Humaitá, Região Geográfica Imediata de Manicoré, Região Geográfica Intermediária de Lábrea, Amazonas, Região Norte, 69800-000, Brasil;-7.5099404;-63.0248674
1301803;Ipixuna;Amazonas;AM;Norte;Ipixuna, Região Geográfica Imediata de Eirunepé, Região Geográfica Intermediária de Tefé, Amazonas, Região Norte, Brasil;-7.0502834;-71.691232
1301852;Iranduba;Amazonas;AM;Norte;Iranduba, Região Geográfica Imediata de Manaus, Região Geográfica Intermediária de Manaus, Amazonas, Região Norte, Brasil;-3.2758203;-60.1867429
1301902;Itacoatiara;Amazonas;AM;Norte;Itacoatiara, Região Geográfica Imediata de Itacoatiara, Região Geográfica Intermediária de Parintins, Amazonas, Região Norte, Brasil;-3.1477898;-58.4461041
1301951;Itamarati;Amazonas;AM;Norte;Itamarati, Região Geográfica Imediata de Eirunepé, Região Geográfica Intermediária de Tefé, Amazonas, Região Norte, 69510-000, Brasil;-6.4385189;-68.2437385
1302009;Itapiranga;Amazonas;AM;Norte;Itapiranga, Região Geográfica Imediata de Itacoatiara, Região Geográfica Intermediária de Parintins, Amazonas, Região Norte, Brasil;-2.7461205;-58.025377
1302108;Japurá;Amazonas;AM;Norte;Japurá, Região Geográfica Imediata de Tefé, Região Geográfica Intermediária de Tefé, Amazonas, Região Norte, Brasil;-1.8808468;-66.9967657
1302207;Juruá;Amazonas;AM;Norte;Juruá, Região Geográfica Imediata de Tefé, Região Geográfica Intermediária de Tefé, Amazonas, Região Norte, Brasil;-3.4746666;-66.0622335
1302306;Jutaí;Amazonas;AM;Norte;Jutaí, Região Geográfica Imediata de Tefé, Região Geográfica Intermediária de Tefé, Amazonas, Região Norte, Brasil;-2.7471478;-66.7721255
1302405;Lábrea;Amazonas;AM;Norte;Lábrea, Região Geográfica Imediata de Lábrea, Região Geográfica Intermediária de Lábrea, Amazonas, Região Norte, 69830-000, Brasil;-7.2613683;-64.7924505
1302504;Manacapuru;Amazonas;AM;Norte;Manacapuru, Região Geográfica Imediata de Manacapuru, Região Geográfica Intermediária de Manaus, Amazonas, Região Norte, Brasil;-3.2996768;-60.6213528
1302553;Manaquiri;Amazonas;AM;Norte;Manaquiri, Região Geográfica Imediata de Manaus, Região Geográfica Intermediária de Manaus, Amazonas, Região Norte, Brasil;-3.4305885;-60.4593078
1302603;Manaus;Amazonas;AM;Norte;Manaus, Região Geográfica Imediata de Manaus, Região Geográfica Intermediária de Manaus, Amazonas, Região Norte, 69000-000, Brasil;-3.1316333;-59.9825041
1302702;Manicoré;Amazonas;AM;Norte;Manicoré, Região Geográfica Imediata de Manicoré, Região Geográfica Intermediária de Lábrea, Amazonas, Região Norte, Brasil;-5.804618;-61.289483
1302801;Maraã;Amazonas;AM;Norte;Maraã, Região Geográfica Imediata de Tefé, Região Geográfica Intermediária de Tefé, Amazonas, Região Norte, 69490-000, Brasil;-1.8535579;-65.5897749
1302900;Maués;Amazonas;AM;Norte;Maués, Região Geográfica Imediata de Parintins, Região Geográfica Intermediária de Parintins, Amazonas, Região Norte, Brasil;-3.3795798;-57.7196072
1303007;Nhamundá;Amazonas;AM;Norte;Nhamundá, Região Geográfica Imediata de Parintins, Região Geográfica Intermediária de Parintins, Amazonas, Região Norte, Brasil;-2.1921521;-56.7111308
1303106;Nova Olinda do Norte;Amazonas;AM;Norte;Nova Olinda do Norte, Região Geográfica Imediata de Manaus, Região Geográfica Intermediária de Manaus, Amazonas, Região Norte, Brasil;-3.8926889;-59.0953046
1303205;Novo Airão;Amazonas;AM;Norte;Novo Airão, Região Geográfica Imediata de Manacapuru, Região Geográfica Intermediária de Manaus, Amazonas, Região Norte, Brasil;-2.6260236;-60.9434406
1303304;Novo Aripuanã;Amazonas;AM;Norte;Novo Aripuanã, Região Geográfica Imediata de Manicoré, Região Geográfica Intermediária de Lábrea, Amazonas, Região Norte, 69260-000, Brasil;-5.125929;-60.373179
1303403;Parintins;Amazonas;AM;Norte;Parintins, Região Geográfica Imediata de Parintins, Região Geográfica Intermediária de Parintins, Amazonas, Região Norte, Brasil;-2.6344567;-56.7319324
1303502;Pauini;Amazonas;AM;Norte;Pauini, Região Geográfica Imediata de Lábrea, Região Geográfica Intermediária de Lábrea, Amazonas, Região Norte, Brasil;-7.7122214;-66.9998441
1303536;Presidente Figueiredo;Amazonas;AM;Norte;Presidente Figueiredo, Região Geográfica Imediata de Manaus, Região Geográfica Intermediária de Manaus, Amazonas, Região Norte, 69735-000, Brasil;-2.0486359;-60.0236658
1303569;Rio Preto da Eva;Amazonas;AM;Norte;Rio Preto da Eva, Região Geográfica Imediata de Manaus, Região Geográfica Intermediária de Manaus, Amazonas, Região Norte, 69117-000, Brasil;-2.6990647;-59.7012494
1303601;Santa Isabel do Rio Negro;Amazonas;AM;Norte;Santa Isabel do Rio Negro, Região Geográfica Imediata de São Gabriel da Cachoeira, Região Geográfica Intermediária de Manaus, Amazonas, Região Norte, 67940-000, Brasil;-0.4160389;-65.0153096
1303700;Santo Antônio do Içá;Amazonas;AM;Norte;Santo Antônio do Içá, Região Geográfica Imediata de Tabatinga, Região Geográfica Intermediária de Tefé, Amazonas, Região Norte, 69680-000, Brasil;-3.095443;-67.946279
1303809;São Gabriel da Cachoeira;Amazonas;AM;Norte;São Gabriel da Cachoeira, Região Geográfica Imediata de São Gabriel da Cachoeira, Região Geográfica Intermediária de Manaus, Amazonas, Região Norte, 69750-000, Brasil;-0.1249715;-67.0813855
1303908;São Paulo de Olivença;Amazonas;AM;Norte;São Paulo de Olivença, Região Geográfica Imediata de Tabatinga, Região Geográfica Intermediária de Tefé, Amazonas, Região Norte, 69600-000, Brasil;-3.4650627;-68.9468462
1303957;São Sebastião do Uatumã;Amazonas;AM;Norte;São Sebastião do Uatumã, Região Geográfica Imediata de Itacoatiara, Região Geográfica Intermediária de Parintins, Amazonas, Região Norte, Brasil;-2.5719341;-57.8703616
1304005;Silves;Amazonas;AM;Norte;Silves, Região Geográfica Imediata de Itacoatiara, Região Geográfica Intermediária de Parintins, Amazonas, Região Norte, Brasil;-2.8372614;-58.2105199
1304062;Tabatinga;Amazonas;AM;Norte;Tabatinga, Região Geográfica Imediata de Tabatinga, Região Geográfica Intermediária de Tefé, Amazonas, Região Norte, 69640-000, Brasil;-4.2327349;-69.9263372
1304104;Tapauá;Amazonas;AM;Norte;Tapauá, Região Geográfica Imediata de Lábrea, Região Geográfica Intermediária de Lábrea, Amazonas, Região Norte, 69480-000, Brasil;-5.6232283;-63.1879157
1304203;Tefé;Amazonas;AM;Norte;Tefé, Região Geográfica Imediata de Tefé, Região Geográfica Intermediária de Tefé, Amazonas, Região Norte, Brasil;-3.3485276;-64.7102278
1304237;Tonantins;Amazonas;AM;Norte;Tonantins, Região Geográfica Imediata de Tabatinga, Região Geográfica Intermediária de Tefé, Amazonas, Região Norte, 69685-000, Brasil;-2.86261;-67.7735482
1304260;Uarini;Amazonas;AM;Norte;Uarini, Região Geográfica Imediata de Tefé, Região Geográfica Intermediária de Tefé, Amazonas, Região Norte, 69485-000, Brasil;-2.9827061;-65.1578615
1304302;Urucará;Amazonas;AM;Norte;Urucará, Região Geográfica Imediata de Itacoatiara, Região Geográfica Intermediária de Parintins, Amazonas, Região Norte, Brasil;-2.537073;-57.7590254
1304401;Urucurituba;Amazonas;AM;Norte;Urucurituba, Região Geográfica Imediata de Itacoatiara, Região Geográfica Intermediária de Parintins, Amazonas, Região Norte, Brasil;-3.1304332;-58.1549157
1400027;Amajari;Roraima;RR;Norte;Amajari, Região Geográfica Imediata de Pacaraima, Região Geográfica Intermediária de Boa Vista, Roraima, Região Norte, 69343-000, Brasil;3.6523869;-61.4194315
1400050;Alto Alegre;Roraima;RR;Norte;Alto Alegre, Região Geográfica Imediata de Boa Vista, Região Geográfica Intermediária de Boa Vista, Roraima, Região Norte, Brasil;2.9900927;-61.3089649
1400100;Boa Vista;Roraima;RR;Norte;Boa Vista, Região Geográfica Imediata de Boa Vista, Região Geográfica Intermediária de Boa Vista, Roraima, Região Norte, Brasil;2.8208478;-60.6719582
1400159;Bonfim;Roraima;RR;Norte;Bonfim, Região Geográfica Imediata de Boa Vista, Região Geográfica Intermediária de Boa Vista, Roraima, Região Norte, Brasil;3.3613818;-59.8427241
1400175;Cantá;Roraima;RR;Norte;Cantá, Região Geográfica Imediata de Boa Vista, Região Geográfica Intermediária de Boa Vista, Roraima, Região Norte, Brasil;2.60994;-60.605827
1400209;Caracaraí;Roraima;RR;Norte;Caracaraí, Região Geográfica Imediata de Caracaraí, Região Geográfica Intermediária de Rorainópolis-Caracaraí, Roraima, Região Norte, 69360-000, Brasil;1.827598;-61.125389
1400233;Caroebe;Roraima;RR;Norte;Caroebe, Região Geográfica Imediata de Rorainópolis, Região Geográfica Intermediária de Rorainópolis-Caracaraí, Roraima, Região Norte, Brasil;0.8808696;-59.6963796
1400282;Iracema;Roraima;RR;Norte;Iracema, Região Geográfica Imediata de Caracaraí, Região Geográfica Intermediária de Rorainópolis-Caracaraí, Roraima, Região Norte, Brasil;2.1664742;-61.0513048
1400308;Mucajaí;Roraima;RR;Norte;Mucajaí, Região Geográfica Imediata de Boa Vista, Região Geográfica Intermediária de Boa Vista, Roraima, Região Norte, Brasil;2.4486084;-60.9199986
1400407;Normandia;Roraima;RR;Norte;Normandia, Região Geográfica Imediata de Pacaraima, Região Geográfica Intermediária de Boa Vista, Roraima, Região Norte, Brasil;3.8792356;-59.6293367
1400456;Pacaraima;Roraima;RR;Norte;Pacaraima, Região Geográfica Imediata de Pacaraima, Região Geográfica Intermediária de Boa Vista, Roraima, Região Norte, 69345-000, Brasil;4.4787884;-61.1389799
1400472;Rorainópolis;Roraima;RR;Norte;Rorainópolis, Região Geográfica Imediata de Rorainópolis, Região Geográfica Intermediária de Rorainópolis-Caracaraí, Roraima, Região Norte, 69373-000, Brasil;0.9387308;-60.4236464
1400506;São João da Baliza;Roraima;RR;Norte;São João da Baliza, Região Geográfica Imediata de Rorainópolis, Região Geográfica Intermediária de Rorainópolis-Caracaraí, Roraima, Região Norte, Brasil;0.951659;-59.913293
1400605;São Luiz;Roraima;RR;Norte;São Luiz, Região Geográfica Imediata de Rorainópolis, Região Geográfica Intermediária de Rorainópolis-Caracaraí, Roraima, Região Norte, Brasil;1.0170607;-60.0371719
1400704;Uiramutã;Roraima;RR;Norte;Uiramutã, Região Geográfica Imediata de Pacaraima, Região Geográfica Intermediária de Boa Vista, Roraima, Região Norte, Brasil;4.5958269;-60.1624807
1500107;Abaetetuba;Pará;PA;Norte;Abaetetuba, Região Geográfica Imediata de Abaetetuba, Região Geográfica Intermediária de Belém, Pará, Região Norte, 68440-000, Brasil;-1.721828;-48.878843
1500131;Abel Figueiredo;Pará;PA;Norte;Abel Figueiredo, Região Geográfica Imediata de Marabá, Região Geográfica Intermediária de Marabá, Pará, Região Norte, Brasil;-4.953001;-48.3958485
1500206;Acará;Pará;PA;Norte;Acará, Região Geográfica Intermediária de Belém, Pará, Região Norte, Brasil;-1.961388;-48.1987043
1500305;Afuá;Pará;PA;Norte;Afuá, Região Geográfica Imediata de Breves, Região Geográfica Intermediária de Breves, Pará, Região Norte, 68890-000, Brasil;-0.1535664;-50.3879223
1500347;Água Azul do Norte;Pará;PA;Norte;Água Azul do Norte, Região Geográfica Imediata de Xinguara, Região Geográfica Intermediária de Redenção, Pará, Região Norte, Brasil;-6.8064885;-50.4849667
1500404;Alenquer;Pará;PA;Norte;Alenquer, Região Geográfica Imediata de Santarém, Região Geográfica Intermediária de Santarém, Pará, Região Norte, Brasil;-1.946229;-54.738355
1500503;Almeirim;Pará;PA;Norte;Almeirim, Região Geográfica Imediata de Almeirim - Porto de Moz, Região Geográfica Intermediária de Altamira, Pará, Região Norte, 68230-000, Brasil;-1.5290377;-52.5788111
1500602;Altamira;Pará;PA;Norte;Altamira, Região Geográfica Imediata de Altamira, Região Geográfica Intermediária de Altamira, Pará, Região Norte, Brasil;-3.204065;-52.209961
1500701;Anajás;Pará;PA;Norte;Anajás, Região Geográfica Imediata de Breves, Região Geográfica Intermediária de Breves, Pará, Região Norte, Brasil;-0.9878802;-49.9390114
1500800;Ananindeua;Pará;PA;Norte;Ananindeua, Região Geográfica Imediata de Belém, Região Geográfica Intermediária de Belém, Pará, Região Norte, Brasil;-1.374035;-48.4016623
1500859;Anapu;Pará;PA;Norte;Anapu, Região Geográfica Imediata de Altamira, Região Geográfica Intermediária de Altamira, Pará, Região Norte, Brasil;-3.4668292;-51.2057035
1500909;Augusto Corrêa;Pará;PA;Norte;Augusto Corrêa, Região Geográfica Imediata de Bragança, Região Geográfica Intermediária de Castanhal, Pará, Região Norte, 68610-000, Brasil;-1.0229335;-46.6404029
1500958;Aurora do Pará;Pará;PA;Norte;Aurora do Pará, Região Geográfica Imediata de Paragominas, Região Geográfica Intermediária de Castanhal, Pará, Região Norte, Brasil;-2.1323199;-47.558436
1501006;Aveiro;Pará;PA;Norte;Aveiro, Região Geográfica Imediata de Itaituba, Região Geográfica Intermediária de Santarém, Pará, Região Norte, Brasil;-3.6029015;-55.328079
1501105;Bagre;Pará;PA;Norte;Bagre, Região Geográfica Imediata de Breves, Região Geográfica Intermediária de Breves, Pará, Região Norte, 68475-000, Brasil;-1.8994498;-50.2103844
1501204;Baião;Pará;PA;Norte;Baião, Região Geográfica Imediata de Tucuruí, Região Geográfica Intermediária de Marabá, Pará, Região Norte, Brasil;-2.7903479;-49.6702845
1501253;Bannach;Pará;PA;Norte;Bannach, Região Geográfica Imediata de Redenção, Região Geográfica Intermediária de Redenção, Pará, Região Norte, Brasil;-7.3508505;-50.4064531
1501303;Barcarena;Pará;PA;Norte;Barcarena, Região Geográfica Intermediária de Belém, Pará, Região Norte, Brasil;-1.5107945;-48.6190679
1501402;Belém;Pará;PA;Norte;Belém, Região Geográfica Imediata de Belém, Região Geográfica Intermediária de Belém, Pará, Região Norte, Brasil;-1.45056;-48.4682453
1501451;Belterra;Pará;PA;Norte;Belterra, Região Geográfica Imediata de Santarém, Região Geográfica Intermediária de Santarém, Pará, Região Norte, 68143-000, Brasil;-2.636091;-54.937392
1501501;Benevides;Pará;PA;Norte;Benevides, Região Geográfica Intermediária de Belém, Pará, Região Norte, 68795-000, Brasil;-1.3555577;-48.252235
1501576;Bom Jesus do Tocantins;Pará;PA;Norte;Bom Jesus do Tocantins, Região Geográfica Imediata de Marabá, Região Geográfica Intermediária de Marabá, Pará, Região Norte, Brasil;-5.0471796;-48.5978362
1501600;Bonito;Pará;PA;Norte;Bonito, Região Geográfica Imediata de Capanema, Região Geográfica Intermediária de Castanhal, Pará, Região Norte, Brasil;-1.3605722;-47.3049907
1501709;Bragança;Pará;PA;Norte;Bragança, Região Geográfica Imediata de Bragança, Região Geográfica Intermediária de Castanhal, Pará, Região Norte, 68600-000, Brasil;-0.9892329;-46.783178998153524
1501725;Brasil Novo;Pará;PA;Norte;Brasil Novo, Região Geográfica Imediata de Altamira, Região Geográfica Intermediária de Altamira, Pará, Região Norte, 68148-000, Brasil;-3.3055853;-52.539198
1501758;Brejo Grande do Araguaia;Pará;PA;Norte;Brejo Grande do Araguaia, Região Geográfica Imediata de Marabá, Região Geográfica Intermediária de Marabá, Pará, Região Norte, Brasil;-5.7011449;-48.4037308
1501782;Breu Branco;Pará;PA;Norte;Breu Branco, Região Geográfica Imediata de Tucuruí, Região Geográfica Intermediária de Marabá, Pará, Região Norte, 68488-000, Brasil;-3.7785073;-49.5684795
1501808;Breves;Pará;PA;Norte;Breves, Região Geográfica Imediata de Breves, Região Geográfica Intermediária de Breves, Pará, Região Norte, 68800-000, Brasil;-1.68036;-50.479085
1501907;Bujaru;Pará;PA;Norte;Bujaru, Região Geográfica Imediata de Belém, Região Geográfica Intermediária de Belém, Pará, Região Norte, 68670-000, Brasil;-1.5169239;-48.0410699
1501956;Cachoeira do Piriá;Pará;PA;Norte;Cachoeira do Piriá, Região Geográfica Imediata de Bragança, Região Geográfica Intermediária de Castanhal, Pará, Região Norte, Brasil;-1.7599443;-46.5446954
1502004;Cachoeira do Arari;Pará;PA;Norte;Cachoeira do Arari, Região Geográfica Imediata de Soure-Salvaterra, Região Geográfica Intermediária de Breves, Pará, Região Norte, Brasil;-1.0143572;-48.9621089
1502103;Cametá;Pará;PA;Norte;Cametá, Região Geográfica Imediata de Cametá, Região Geográfica Intermediária de Belém, Pará, Região Norte, 68400-000, Brasil;-2.242949;-49.497885
1502152;Canaã dos Carajás;Pará;PA;Norte;Canaã dos Carajás, Região Geográfica Imediata de Parauapebas, Região Geográfica Intermediária de Marabá, Pará, Região Norte, 68537-000, Brasil;-6.5296837;-49.8516592
1502202;Capanema;Pará;PA;Norte;Capanema, Região Geográfica Imediata de Francisco Beltrão, Região Geográfica Intermediária de Cascavel, Paraná, Região Sul, Brasil;-25.6704878;-53.8083036
1502301;Capitão Poço;Pará;PA;Norte;Capitão Poço, Região Geográfica Imediata de Capitão Poço, Região Geográfica Intermediária de Castanhal, Pará, Região Norte, 68650-000, Brasil;-1.7447162;-47.0638495
1502400;Castanhal;Pará;PA;Norte;Castanhal, Região Geográfica Imediata de Castanhal, Região Geográfica Intermediária de Castanhal, Pará, Região Norte, Brasil;-1.2927031;-47.9223903
1502509;Chaves;Pará;PA;Norte;Chaves, Região Geográfica Imediata de Breves, Região Geográfica Intermediária de Breves, Pará, Região Norte, Brasil;-0.164154;-49.987006
1502608;Colares;Pará;PA;Norte;Colares, Região Geográfica Intermediária de Belém, Pará, Região Norte, 68785-000, Brasil;-0.936423;-48.280254
1502707;Conceição do Araguaia;Pará;PA;Norte;Conceição do Araguaia, Região Geográfica Imediata de Redenção, Região Geográfica Intermediária de Redenção, Pará, Região Norte, Brasil;-8.2696905;-49.2676864
1502756;Concórdia do Pará;Pará;PA;Norte;Concórdia do Pará, Região Geográfica Imediata de Belém, Região Geográfica Intermediária de Belém, Pará, Região Norte, Brasil;-1.9924056;-47.9450474
1502764;Cumaru do Norte;Pará;PA;Norte;Cumaru do Norte, Região Geográfica Imediata de Redenção, Região Geográfica Intermediária de Redenção, Pará, Região Norte, Brasil;-7.8122669;-50.7677675
1502772;Curionópolis;Pará;PA;Norte;Curionópolis, Região Geográfica Imediata de Parauapebas, Região Geográfica Intermediária de Marabá, Pará, Região Norte, 68523-000, Brasil;-6.0990443;-49.6059039
1502806;Curralinho;Pará;PA;Norte;Curralinho-PA, Avenida Jarbas Passarinho, Curralinho, Região Geográfica Imediata de Breves, Região Geográfica Intermediária de Breves, Pará, Região Norte, Brasil;-1.8115866;-49.7975682
1502855;Curuá;Pará;PA;Norte;Curuá, Região Geográfica Imediata de Oriximiná, Região Geográfica Intermediária de Santarém, Pará, Região Norte, Brasil;-1.887754;-55.116842
1502905;Curuçá;Pará;PA;Norte;Curuçá, Região Geográfica Imediata de Castanhal, Região Geográfica Intermediária de Castanhal, Pará, Região Norte, 68750-000, Brasil;-0.7276792;-47.856568
1502939;Dom Eliseu;Pará;PA;Norte;Dom Eliseu, Região Geográfica Imediata de Paragominas, Região Geográfica Intermediária de Castanhal, Pará, Região Norte, 68633-000, Brasil;-4.2928111;-47.5559083
1502954;Eldorado do Carajás;Pará;PA;Norte;Eldorado do Carajás, Região Geográfica Imediata de Parauapebas, Região Geográfica Intermediária de Marabá, Pará, Região Norte, Brasil;-6.1029246;-49.3572487
1503002;Faro;Pará;PA;Norte;Faro, Região Geográfica Imediata de Oriximiná, Região Geográfica Intermediária de Santarém, Pará, Região Norte, 68280-000, Brasil;-1.1091625500000002;-57.800250715708856
1503044;Floresta do Araguaia;Pará;PA;Norte;Floresta do Araguaia, Região Geográfica Imediata de Redenção, Região Geográfica Intermediária de Redenção, Pará, Região Norte, Brasil;-7.5597065;-49.7032829
1503077;Garrafão do Norte;Pará;PA;Norte;Garrafão do Norte, Região Geográfica Imediata de Capitão Poço, Região Geográfica Intermediária de Castanhal, Pará, Região Norte, Brasil;-1.9282256;-47.0513157
1503093;Goianésia do Pará;Pará;PA;Norte;Goianésia do Pará, Região Geográfica Imediata de Tucuruí, Região Geográfica Intermediária de Marabá, Pará, Região Norte, Brasil;-3.8380998;-49.0977992
1503101;Gurupá;Pará;PA;Norte;Gurupá, Região Geográfica Imediata de Breves, Região Geográfica Intermediária de Breves, Pará, Região Norte, 68300-000, Brasil;-1.406325;-51.6427456
1503200;Igarapé-Açu;Pará;PA;Norte;Igarapé-Açu, Região Geográfica Imediata de Castanhal, Região Geográfica Intermediária de Castanhal, Pará, Região Norte, 68725-000, Brasil;-1.128244;-47.6199021
1503309;Igarapé-Miri;Pará;PA;Norte;Igarapé-Miri, Região Geográfica Imediata de Abaetetuba, Região Geográfica Intermediária de Belém, Pará, Região Norte, 68430-000, Brasil;-1.9785213;-48.9634826
1503408;Inhangapi;Pará;PA;Norte;Inhangapi, Região Geográfica Imediata de Castanhal, Região Geográfica Intermediária de Castanhal, Pará, Região Norte, 68770-000, Brasil;-1.4283738;-47.9108608
1503457;Ipixuna do Pará;Pará;PA;Norte;Ipixuna do Pará, Região Geográfica Imediata de Paragominas, Região Geográfica Intermediária de Castanhal, Pará, Região Norte, 68637-000, Brasil;-2.5592139;-47.4965462
1503507;Irituia;Pará;PA;Norte;Irituia, Região Geográfica Imediata de Castanhal, Região Geográfica Intermediária de Castanhal, Pará, Região Norte, Brasil;-1.7709543;-47.4399687
1503606;Itaituba;Pará;PA;Norte;Itaituba, Região Geográfica Imediata de Itaituba, Região Geográfica Intermediária de Santarém, Pará, Região Norte, Brasil;-4.2625218;-55.9878139
1503705;Itupiranga;Pará;PA;Norte;Itupiranga, Região Geográfica Imediata de Marabá, Região Geográfica Intermediária de Marabá, Pará, Região Norte, 68580-000, Brasil;-5.1337224;-49.3321988
1503754;Jacareacanga;Pará;PA;Norte;Jacareacanga, Região Geográfica Imediata de Itaituba, Região Geográfica Intermediária de Santarém, Pará, Região Norte, 69190-000, Brasil;-6.2196518;-57.758625
1503804;Jacundá;Pará;PA;Norte;Jacundá, Região Geográfica Imediata de Marabá, Região Geográfica Intermediária de Marabá, Pará, Região Norte, 68590-000, Brasil;-4.446173;-49.115272
1503903;Juruti;Pará;PA;Norte;Juruti, Região Geográfica Imediata de Oriximiná, Região Geográfica Intermediária de Santarém, Pará, Região Norte, Brasil;-2.1571381;-56.0900977
1504000;Limoeiro do Ajuru;Pará;PA;Norte;Limoeiro do Ajuru, Região Geográfica Imediata de Cametá, Região Geográfica Intermediária de Belém, Pará, Região Norte, Brasil;-1.8958813;-49.3828438
1504059;Mãe do Rio;Pará;PA;Norte;Mãe do Rio, Região Geográfica Imediata de Paragominas, Região Geográfica Intermediária de Castanhal, Pará, Região Norte, 68675-000, Brasil;-2.0458692;-47.5522076
1504109;Magalhães Barata;Pará;PA;Norte;Magalhães Barata, Região Geográfica Imediata de Castanhal, Região Geográfica Intermediária de Castanhal, Pará, Região Norte, Brasil;-0.7960066;-47.6010399
1504208;Marabá;Pará;PA;Norte;Marabá, Região Geográfica Imediata de Marabá, Região Geográfica Intermediária de Marabá, Pará, Região Norte, Brasil;-5.3462821;-49.1007401
1504307;Maracanã;Pará;PA;Norte;Maracanã, Região Geográfica Imediata de Castanhal, Região Geográfica Intermediária de Castanhal, Pará, Região Norte, 68710-000, Brasil;-0.7666582;-47.4537818
1504406;Marapanim;Pará;PA;Norte;Marapanim, Região Geográfica Imediata de Castanhal, Região Geográfica Intermediária de Castanhal, Pará, Região Norte, 68760-000, Brasil;-0.7134493;-47.6985381
1504422;Marituba;Pará;PA;Norte;Marituba, Região Geográfica Intermediária de Belém, Pará, Região Norte, 67200-000, Brasil;-1.3595306;-48.3361504
1504455;Medicilândia;Pará;PA;Norte;Medicilândia, Região Geográfica Imediata de Altamira, Região Geográfica Intermediária de Altamira, Pará, Região Norte, Brasil;-3.4438388;-52.8889236
1504505;Melgaço;Pará;PA;Norte;Melgaço, Região Geográfica Imediata de Breves, Região Geográfica Intermediária de Breves, Pará, Região Norte, Brasil;-1.803202;-50.714927
1504604;Mocajuba;Pará;PA;Norte;Mocajuba, Região Geográfica Imediata de Cametá, Região Geográfica Intermediária de Belém, Pará, Região Norte, 68420-000, Brasil;-2.583098;-49.504224
1504703;Moju;Pará;PA;Norte;Moju, Região Geográfica Imediata de Abaetetuba, Região Geográfica Intermediária de Belém, Pará, Região Norte, Brasil;-1.889926;-48.766765
1504752;Mojuí dos Campos;Pará;PA;Norte;Mojuí dos Campos, Região Geográfica Imediata de Santarém, Região Geográfica Intermediária de Santarém, Pará, Região Norte, 68129-000, Brasil;-2.682167;-54.642717
1504802;Monte Alegre;Pará;PA;Norte;Monte Alegre, Região Geográfica Imediata de Santarém, Região Geográfica Intermediária de Santarém, Pará, Região Norte, 68220-000, Brasil;-1.9989108;-54.0727694
1504901;Muaná;Pará;PA;Norte;Muaná, Região Geográfica Imediata de Soure-Salvaterra, Região Geográfica Intermediária de Breves, Pará, Região Norte, 68825-000, Brasil;-1.5317443;-49.2223565
1504950;Nova Esperança do Piriá;Pará;PA;Norte;Nova Esperança do Piriá, Região Geográfica Imediata de Capitão Poço, Região Geográfica Intermediária de Castanhal, Pará, Região Norte, 68618-000, Brasil;-2.2663093;-46.9661622
1504976;Nova Ipixuna;Pará;PA;Norte;Nova Ipixuna, Região Geográfica Imediata de Marabá, Região Geográfica Intermediária de Marabá, Pará, Região Norte, Brasil;-4.916221;-49.082194
1505007;Nova Timboteua;Pará;PA;Norte;Nova Timboteua, Região Geográfica Imediata de Capanema, Região Geográfica Intermediária de Castanhal, Pará, Região Norte, Brasil;-1.2052428;-47.3935775
1505031;Novo Progresso;Pará;PA;Norte;Novo Progresso, Região Geográfica Imediata de Itaituba, Região Geográfica Intermediária de Santarém, Pará, Região Norte, Brasil;-7.0374884;-55.4185904
1505064;Novo Repartimento;Pará;PA;Norte;Novo Repartimento, Região Geográfica Imediata de Tucuruí, Região Geográfica Intermediária de Marabá, Pará, Região Norte, 68473-000, Brasil;-4.2519172;-49.9524257
1505106;Óbidos;Pará;PA;Norte;Óbidos, Região Geográfica Imediata de Oriximiná, Região Geográfica Intermediária de Santarém, Pará, Região Norte, Brasil;-1.901072;-55.520812
1505205;Oeiras do Pará;Pará;PA;Norte;Oeiras do Pará, Região Geográfica Imediata de Cametá, Região Geográfica Intermediária de Belém, Pará, Região Norte, Brasil;-2.0040813;-49.8596065
1505304;Oriximiná;Pará;PA;Norte;Oriximiná, Região Geográfica Imediata de Oriximiná, Região Geográfica Intermediária de Santarém, Pará, Região Norte, 68270-000, Brasil;-1.7669992;-55.868285
1505403;Ourém;Pará;PA;Norte;Ourém, Região Geográfica Imediata de Capitão Poço, Região Geográfica Intermediária de Castanhal, Pará, Região Norte, Brasil;-1.5489964;-47.1174572
1505437;Ourilândia do Norte;Pará;PA;Norte;Ourilândia do Norte, Região Geográfica Imediata de Tucumã - São Félix do Xingu, Região Geográfica Intermediária de Redenção, Pará, Região Norte, Brasil;-6.748975;-51.0788476
1505486;Pacajá;Pará;PA;Norte;Pacajá, Região Geográfica Imediata de Tucuruí, Região Geográfica Intermediária de Marabá, Pará, Região Norte, 68485-000, Brasil;-3.8354195;-50.6399248
1505494;Palestina do Pará;Pará;PA;Norte;Palestina do Pará, Região Geográfica Imediata de Marabá, Região Geográfica Intermediária de Marabá, Pará, Região Norte, Brasil;-5.7423938;-48.3185533
1505502;Paragominas;Pará;PA;Norte;Paragominas, Região Geográfica Imediata de Paragominas, Região Geográfica Intermediária de Castanhal, Pará, Região Norte, Brasil;-2.99564;-47.3548942
1505536;Parauapebas;Pará;PA;Norte;Parauapebas, Região Geográfica Imediata de Parauapebas, Região Geográfica Intermediária de Marabá, Pará, Região Norte, 68515-000, Brasil;-6.0696846;-49.8903283
1505551;Pau D'Arco;Pará;PA;Norte;Pau d'Arco, Região Geográfica Imediata de Redenção, Região Geográfica Intermediária de Redenção, Pará, Região Norte, Brasil;-7.8331153;-50.0404438
1505601;Peixe-Boi;Pará;PA;Norte;Peixe-Boi, Região Geográfica Imediata de Capanema, Região Geográfica Intermediária de Castanhal, Pará, Região Norte, Brasil;-1.193824;-47.324031
1505635;Piçarra;Pará;PA;Norte;Piçarra, Região Geográfica Imediata de Marabá, Região Geográfica Intermediária de Marabá, Pará, Região Norte, Brasil;-6.4475822;-48.8633795
1505650;Placas;Pará;PA;Norte;Placas, Região Geográfica Imediata de Itaituba, Região Geográfica Intermediária de Santarém, Pará, Região Norte, Brasil;-3.8689529;-54.2154346
1505700;Ponta de Pedras;Pará;PA;Norte;Ponta de Pedras, Região Geográfica Imediata de Soure-Salvaterra, Região Geográfica Intermediária de Breves, Pará, Região Norte, Brasil;-1.3914098;-48.8714528
1505809;Portel;Pará;PA;Norte;Portel, Região Geográfica Imediata de Breves, Região Geográfica Intermediária de Breves, Pará, Região Norte, 68480-000, Brasil;-1.9387118;-50.8240402
1505908;Porto de Moz;Pará;PA;Norte;Porto de Moz, Região Geográfica Imediata de Almeirim - Porto de Moz, Região Geográfica Intermediária de Altamira, Pará, Região Norte, Brasil;-1.7502089;-52.235556
1506005;Prainha;Pará;PA;Norte;Prainha, Região Geográfica Imediata de Santarém, Região Geográfica Intermediária de Santarém, Pará, Região Norte, Brasil;-1.8072874;-53.4797942
1506104;Primavera;Pará;PA;Norte;Primavera, Região Geográfica Imediata de Capanema, Região Geográfica Intermediária de Castanhal, Pará, Região Norte, 68707-000, Brasil;-0.9406522;-47.116728
1506112;Quatipuru;Pará;PA;Norte;Quatipuru, Região Geográfica Imediata de Capanema, Região Geográfica Intermediária de Castanhal, Pará, Região Norte, 68709-000, Brasil;-0.8948725;-47.0049317
1506138;Redenção;Pará;PA;Norte;Redenção, Região Geográfica Imediata de Redenção, Região Geográfica Intermediária de Redenção, Pará, Região Norte, Brasil;-8.025294;-50.031687
1506161;Rio Maria;Pará;PA;Norte;Rio Maria, Região Geográfica Imediata de Xinguara, Região Geográfica Intermediária de Redenção, Pará, Região Norte, Brasil;-7.3137312;-50.0465372
1506187;Rondon do Pará;Pará;PA;Norte;Rondon do Pará, Região Geográfica Imediata de Marabá, Região Geográfica Intermediária de Marabá, Pará, Região Norte, Brasil;-4.7804416;-48.06983
1506195;Rurópolis;Pará;PA;Norte;Rurópolis, Região Geográfica Imediata de Itaituba, Região Geográfica Intermediária de Santarém, Pará, Região Norte, 68165-000, Brasil;-4.1014311;-54.9086853
1506203;Salinópolis;Pará;PA;Norte;Salinópolis, Região Geográfica Imediata de Capanema, Região Geográfica Intermediária de Castanhal, Pará, Região Norte, 68721-000, Brasil;-0.6259282;-47.3442819
1506302;Salvaterra;Pará;PA;Norte;Salvaterra, Região Geográfica Imediata de Soure-Salvaterra, Região Geográfica Intermediária de Breves, Pará, Região Norte, 68860-000, Brasil;-0.758444;-48.513921
1506351;Santa Bárbara do Pará;Pará;PA;Norte;Santa Bárbara do Pará, Região Geográfica Intermediária de Belém, Pará, Região Norte, Brasil;-1.226144;-48.295101
1506401;Santa Cruz do Arari;Pará;PA;Norte;Santa Cruz do Arari, Região Geográfica Imediata de Soure-Salvaterra, Região Geográfica Intermediária de Breves, Pará, Região Norte, Brasil;-0.6637491;-49.1729321
1506500;Santa Izabel do Pará;Pará;PA;Norte;Santa Izabel do Pará, Região Geográfica Imediata de Belém, Região Geográfica Intermediária de Belém, Pará, Região Norte, 68790-000, Brasil;-1.2968557;-48.1605533
1506559;Santa Luzia do Pará;Pará;PA;Norte;Santa Luzia do Pará, Região Geográfica Imediata de Bragança, Região Geográfica Intermediária de Castanhal, Pará, Região Norte, Brasil;-1.5220049;-46.9020697
1506583;Santa Maria das Barreiras;Pará;PA;Norte;Santa Maria das Barreiras, Região Geográfica Imediata de Redenção, Região Geográfica Intermediária de Redenção, Pará, Região Norte, Brasil;-8.8710157;-49.7171263
1506609;Santa Maria do Pará;Pará;PA;Norte;Santa Maria do Pará, Região Geográfica Imediata de Castanhal, Região Geográfica Intermediária de Castanhal, Pará, Região Norte, Brasil;-1.3455478;-47.5782981
1506708;Santana do Araguaia;Pará;PA;Norte;Santana do Araguaia, Região Geográfica Imediata de Redenção, Região Geográfica Intermediária de Redenção, Pará, Região Norte, 68560-000, Brasil;-9.3348334;-50.3427734
1506807;Santarém;Pará;PA;Norte;Santarém, Região Geográfica Imediata de Santarém, Região Geográfica Intermediária de Santarém, Pará, Região Norte, Brasil;-2.438489;-54.699611
1506906;Santarém Novo;Pará;PA;Norte;Santarém Novo, Região Geográfica Imediata de Capanema, Região Geográfica Intermediária de Castanhal, Pará, Região Norte, Brasil;-0.9283904;-47.3999958
1507003;Santo Antônio do Tauá;Pará;PA;Norte;Santo Antônio do Tauá, Região Geográfica Imediata de Belém, Região Geográfica Intermediária de Belém, Pará, Região Norte, 68786-000, Brasil;-1.1522;-48.131446
1507102;São Caetano de Odivelas;Pará;PA;Norte;São Caetano de Odivelas, Região Geográfica Imediata de Belém, Região Geográfica Intermediária de Belém, Pará, Região Norte, Brasil;-0.747293;-48.024622
1507151;São Domingos do Araguaia;Pará;PA;Norte;São Domingos do Araguaia, Região Geográfica Imediata de Marabá, Região Geográfica Intermediária de Marabá, Pará, Região Norte, Brasil;-5.5416409;-48.7291003
1507201;São Domingos do Capim;Pará;PA;Norte;São Domingos do Capim, Região Geográfica Imediata de Castanhal, Região Geográfica Intermediária de Castanhal, Pará, Região Norte, 68635-000, Brasil;-1.6789331;-47.7717815
1507300;São Félix do Xingu;Pará;PA;Norte;São Félix do Xingu, Região Geográfica Imediata de Tucumã - São Félix do Xingu, Região Geográfica Intermediária de Redenção, Pará, Região Norte, 68380-000, Brasil;-6.6386974;-51.9787582
1507409;São Francisco do Pará;Pará;PA;Norte;São Francisco do Pará, Região Geográfica Imediata de Castanhal, Região Geográfica Intermediária de Castanhal, Pará, Região Norte, Brasil;-1.1693995;-47.7972589
1507458;São Geraldo do Araguaia;Pará;PA;Norte;São Geraldo do Araguaia, Região Geográfica Imediata de Marabá, Região Geográfica Intermediária de Marabá, Pará, Região Norte, Brasil;-6.394715;-48.559169
1507466;São João da Ponta;Pará;PA;Norte;São João da Ponta, Região Geográfica Imediata de Castanhal, Região Geográfica Intermediária de Castanhal, Pará, Região Norte, Brasil;-0.8526516;-47.9224095
1507474;São João de Pirabas;Pará;PA;Norte;São João de Pirabas, Região Geográfica Imediata de Capanema, Região Geográfica Intermediária de Castanhal, Pará, Região Norte, Brasil;-0.7733201;-47.1770631
1507508;São João do Araguaia;Pará;PA;Norte;São João do Araguaia, Região Geográfica Imediata de Marabá, Região Geográfica Intermediária de Marabá, Pará, Região Norte, 68518-000, Brasil;-5.3617017;-48.7911109
1507607;São Miguel do Guamá;Pará;PA;Norte;São Miguel do Guamá, Região Geográfica Imediata de Castanhal, Região Geográfica Intermediária de Castanhal, Pará, Região Norte, 68660-000, Brasil;-1.6116804;-47.4757551
1507706;São Sebastião da Boa Vista;Pará;PA;Norte;São Sebastião da Boa Vista, Região Geográfica Imediata de Breves, Região Geográfica Intermediária de Breves, Pará, Região Norte, Brasil;-1.7182884;-49.5319955
1507755;Sapucaia;Pará;PA;Norte;Sapucaia, Região Geográfica Imediata de Xinguara, Região Geográfica Intermediária de Redenção, Pará, Região Norte, Brasil;-6.9411006;-49.6991328
1507805;Senador José Porfírio;Pará;PA;Norte;Senador José Porfírio, Região Geográfica Imediata de Altamira, Região Geográfica Intermediária de Altamira, Pará, Região Norte, Brasil;-2.5935424;-51.948209
1507904;Soure;Pará;PA;Norte;Soure, Região Geográfica Imediata de Soure-Salvaterra, Região Geográfica Intermediária de Breves, Pará, Região Norte, 68870-000, Brasil;-0.7275759;-48.5189785
1507953;Tailândia;Pará;PA;Norte;Tailândia, Região Geográfica Imediata de Abaetetuba, Região Geográfica Intermediária de Belém, Pará, Região Norte, 68695-000, Brasil;-2.936096;-48.9523366
1507961;Terra Alta;Pará;PA;Norte;Terra Alta, Região Geográfica Imediata de Castanhal, Região Geográfica Intermediária de Castanhal, Pará, Região Norte, 68773-000, Brasil;-1.0397924;-47.9091595
1507979;Terra Santa;Pará;PA;Norte;Terra Santa, Região Geográfica Imediata de Oriximiná, Região Geográfica Intermediária de Santarém, Pará, Região Norte, 68285-000, Brasil;-2.104435;-56.487653
1508001;Tomé-Açu;Pará;PA;Norte;Tomé-Açu, Região Geográfica Imediata de Belém, Região Geográfica Intermediária de Belém, Pará, Região Norte, 68682-000, Brasil;-2.4166306;-48.1522907
1508035;Tracuateua;Pará;PA;Norte;Tracuateua, Região Geográfica Imediata de Bragança, Região Geográfica Intermediária de Castanhal, Pará, Região Norte, 68647-000, Brasil;-1.0765338;-46.9030822
1508050;Trairão;Pará;PA;Norte;Trairão, Região Geográfica Imediata de Itaituba, Região Geográfica Intermediária de Santarém, Pará, Região Norte, Brasil;-4.700551;-55.9972165
1508084;Tucumã;Pará;PA;Norte;Tucumã, Região Geográfica Imediata de Tucumã - São Félix do Xingu, Região Geográfica Intermediária de Redenção, Pará, Região Norte, 68385-000, Brasil;-6.7517239;-51.1507941
1508100;Tucuruí;Pará;PA;Norte;Tucuruí, Região Geográfica Imediata de Tucuruí, Região Geográfica Intermediária de Marabá, Pará, Região Norte, Brasil;-3.7738509;-49.6708204
1508126;Ulianópolis;Pará;PA;Norte;Ulianópolis, Região Geográfica Imediata de Paragominas, Região Geográfica Intermediária de Castanhal, Pará, Região Norte, 68632-000, Brasil;-3.7575266;-47.5009377
1508159;Uruará;Pará;PA;Norte;Uruará, Região Geográfica Imediata de Altamira, Região Geográfica Intermediária de Altamira, Pará, Região Norte, 68140-000, Brasil;-3.7185381;-53.738549
1508209;Vigia;Pará;PA;Norte;Vigia, Região Geográfica Imediata de Belém, Região Geográfica Intermediária de Belém, Pará, Região Norte, Brasil;-0.8546027;-48.1432873
1508308;Viseu;Pará;PA;Norte;Viseu, Região Geográfica Imediata de Bragança, Região Geográfica Intermediária de Castanhal, Pará, Região Norte, Brasil;-1.204892;-46.1392244
1508357;Vitória do Xingu;Pará;PA;Norte;Vitória do Xingu, Região Geográfica Imediata de Altamira, Região Geográfica Intermediária de Altamira, Pará, Região Norte, 68383-900, Brasil;-2.8833063;-52.0114889
1508407;Xinguara;Pará;PA;Norte;Xinguara, Região Geográfica Imediata de Xinguara, Região Geográfica Intermediária de Redenção, Pará, Região Norte, 68545-000, Brasil;-7.0998514;-49.9416632
1600055;Serra do Navio;Amapá;AP;Norte;Serra do Navio, Região Geográfica Imediata de Porto Grande, Região Geográfica Intermediária de Oiapoque-Porto Grande, Amapá, Região Norte, Brasil;1.637;-52.272340909090914
1600105;Amapá;Amapá;AP;Norte;Amapá, Região Geográfica Imediata de Oiapoque, Região Geográfica Intermediária de Oiapoque-Porto Grande, Amapá, Região Norte, Brasil;2.0501747;-50.7922093
1600154;Pedra Branca do Amapari;Amapá;AP;Norte;Pedra Branca do Amapari, Região Geográfica Imediata de Porto Grande, Região Geográfica Intermediária de Oiapoque-Porto Grande, Amapá, Região Norte, Brasil;0.7771833;-51.9523218
1600204;Calçoene;Amapá;AP;Norte;Calçoene, Região Geográfica Imediata de Oiapoque, Região Geográfica Intermediária de Oiapoque-Porto Grande, Amapá, Região Norte, Brasil;2.4981757;-50.9539503
1600212;Cutias;Amapá;AP;Norte;Cutias, Região Geográfica Imediata de Oiapoque, Região Geográfica Intermediária de Oiapoque-Porto Grande, Amapá, Região Norte, Brasil;0.9708625;-50.8000608
1600238;Ferreira Gomes;Amapá;AP;Norte;Ferreira Gomes, Região Geográfica Imediata de Porto Grande, Região Geográfica Intermediária de Oiapoque-Porto Grande, Amapá, Região Norte, 68915-000, Brasil;0.8580838;-51.1814
1600253;Itaubal;Amapá;AP;Norte;Itaubal, Região Geográfica Imediata de Macapá, Região Geográfica Intermediária de Macapá, Amapá, Região Norte, Brasil;0.6027524;-50.6998737
1600279;Laranjal do Jari;Amapá;AP;Norte;Laranjal do Jari, Região Geográfica Imediata de Laranjal do Jari, Região Geográfica Intermediária de Macapá, Amapá, Região Norte, Brasil;-0.8419994;-52.516
1600303;Macapá;Amapá;AP;Norte;Macapá, Região Geográfica Imediata de Macapá, Região Geográfica Intermediária de Macapá, Amapá, Região Norte, Brasil;0.0401529;-51.0569588
1600402;Mazagão;Amapá;AP;Norte;Mazagão, Região Geográfica Imediata de Macapá, Região Geográfica Intermediária de Macapá, Amapá, Região Norte, Brasil;-0.1160565;-51.2861759
1600501;Oiapoque;Amapá;AP;Norte;Oiapoque, Região Geográfica Imediata de Oiapoque, Região Geográfica Intermediária de Oiapoque-Porto Grande, Amapá, Região Norte, 68980-000, Brasil;3.8432128;-51.8350798
1600535;Porto Grande;Amapá;AP;Norte;Porto Grande, Região Geográfica Imediata de Porto Grande, Região Geográfica Intermediária de Oiapoque-Porto Grande, Amapá, Região Norte, 68997-000, Brasil;0.7028371;-51.4041605
1600550;Pracuúba;Amapá;AP;Norte;Pracuúba, Região Geográfica Imediata de Oiapoque, Região Geográfica Intermediária de Oiapoque-Porto Grande, Amapá, Região Norte, Brasil;1.7429041;-50.7848832
1600600;Santana;Amapá;AP;Norte;Santana, Região Geográfica Imediata de Macapá, Região Geográfica Intermediária de Macapá, Amapá, Região Norte, Brasil;-0.0307068;-51.1789666
1600709;Tartarugalzinho;Amapá;AP;Norte;Tartarugalzinho, Região Geográfica Imediata de Oiapoque, Região Geográfica Intermediária de Oiapoque-Porto Grande, Amapá, Região Norte, 68990-000, Brasil;1.5052391;-50.9123126
1600808;Vitória do Jari;Amapá;AP;Norte;Vitória do Jari, Região Geográfica Imediata de Laranjal do Jari, Região Geográfica Intermediária de Macapá, Amapá, Região Norte, Brasil;-0.9310733;-52.4241059
1700251;Abreulândia;Tocantins;TO;Norte;Abreulândia, Região Geográfica Imediata de Paraíso do Tocantins, Região Geográfica Intermediária de Palmas, Tocantins, Região Norte, Brasil;-9.6221526;-49.1558343
1700301;Aguiarnópolis;Tocantins;TO;Norte;Aguiarnópolis, Região Geográfica Imediata de Tocantinópolis, Região Geográfica Intermediária de Araguaína, Tocantins, Região Norte, 77908-000, Brasil;-6.5600452;-47.4721189
1700350;Aliança do Tocantins;Tocantins;TO;Norte;Aliança do Tocantins, Região Geográfica Imediata de Gurupi, Região Geográfica Intermediária de Gurupi, Tocantins, Região Norte, 77455-000, Brasil;-11.3055927;-48.9409096
1700400;Almas;Tocantins;TO;Norte;Almas, Região Geográfica Imediata de Dianópolis, Região Geográfica Intermediária de Gurupi, Tocantins, Região Norte, 77310-000, Brasil;-11.5681309;-47.1702803
1700707;Alvorada;Tocantins;TO;Norte;Alvorada, Região Geográfica Imediata de Porto Alegre, Região Metropolitana de Porto Alegre, Região Geográfica Intermediária de Porto Alegre, Rio Grande do Sul, Região Sul, Brasil;-29.9981184;-51.0772509
1701002;Ananás;Tocantins;TO;Norte;Ananás, Região Geográfica Imediata de Araguaína, Região Geográfica Intermediária de Araguaína, Tocantins, Região Norte, 77890-000, Brasil;-6.3663053;-48.080238
1701051;Angico;Tocantins;TO;Norte;Angico, Região Geográfica Imediata de Araguaína, Região Geográfica Intermediária de Araguaína, Tocantins, Região Norte, 77905-000, Brasil;-6.3893733;-47.8656722
1701101;Aparecida do Rio Negro;Tocantins;TO;Norte;Aparecida do Rio Negro, Região Geográfica Imediata de Palmas, Região Geográfica Intermediária de Palmas, Tocantins, Região Norte, Brasil;-9.9513491;-47.9773786
1701309;Aragominas;Tocantins;TO;Norte;Aragominas, Região Geográfica Imediata de Araguaína, Região Geográfica Intermediária de Araguaína, Tocantins, Região Norte, 77845-000, Brasil;-7.1654101;-48.525488
1701903;Araguacema;Tocantins;TO;Norte;Araguacema, Região Geográfica Imediata de Paraíso do Tocantins, Região Geográfica Intermediária de Palmas, Tocantins, Região Norte, 77690-000, Brasil;-8.8067391;-49.5560969
1702000;Araguaçu;Tocantins;TO;Norte;Araguaçu, Região Geográfica Imediata de Gurupi, Região Geográfica Intermediária de Gurupi, Tocantins, Região Norte, 77475-000, Brasil;-12.928934;-49.823134
1702109;Araguaína;Tocantins;TO;Norte;Araguaína, Região Geográfica Imediata de Araguaína, Região Geográfica Intermediária de Araguaína, Tocantins, Região Norte, Brasil;-7.193241;-48.2018597
1702158;Araguanã;Tocantins;TO;Norte;Araguanã, Região Geográfica Imediata de Araguaína, Região Geográfica Intermediária de Araguaína, Tocantins, Região Norte, 77855-000, Brasil;-6.5799107;-48.6428482
1702208;Araguatins;Tocantins;TO;Norte;Araguatins, Região Geográfica Imediata de Araguatins, Região Geográfica Intermediária de Araguaína, Tocantins, Região Norte, 77950-000, Brasil;-5.6529384;-48.1161923
1702307;Arapoema;Tocantins;TO;Norte;Arapoema, Região Geográfica Imediata de Araguaína, Região Geográfica Intermediária de Araguaína, Tocantins, Região Norte, 77780-000, Brasil;-7.6575001;-49.0641484
1702406;Arraias;Tocantins;TO;Norte;Arraias, Região Geográfica Imediata de Dianópolis, Região Geográfica Intermediária de Gurupi, Tocantins, Região Norte, 77330-000, Brasil;-12.9287788;-46.9437231
1702554;Augustinópolis;Tocantins;TO;Norte;Augustinópolis, Região Geográfica Imediata de Araguatins, Região Geográfica Intermediária de Araguaína, Tocantins, Região Norte, 77960-000, Brasil;-5.4662267;-47.8897519
1702703;Aurora do Tocantins;Tocantins;TO;Norte;Aurora do Tocantins, Região Geográfica Imediata de Dianópolis, Região Geográfica Intermediária de Gurupi, Tocantins, Região Norte, 77325-000, Brasil;-12.71045;-46.407604
1702901;Axixá do Tocantins;Tocantins;TO;Norte;Axixá do Tocantins, Região Geográfica Imediata de Araguatins, Região Geográfica Intermediária de Araguaína, Tocantins, Região Norte, 77930-000, Brasil;-5.612747;-47.77007
1703008;Babaçulândia;Tocantins;TO;Norte;Babaçulândia, Região Geográfica Imediata de Araguaína, Região Geográfica Intermediária de Araguaína, Tocantins, Região Norte, 77870-000, Brasil;-7.2034355;-47.761613
1703057;Bandeirantes do Tocantins;Tocantins;TO;Norte;Bandeirantes do Tocantins, Região Geográfica Imediata de Colinas do Tocantins, Região Geográfica Intermediária de Araguaína, Tocantins, Região Norte, 77783-000, Brasil;-7.7635698;-48.579148
1703073;Barra do Ouro;Tocantins;TO;Norte;Barra do Ouro, Região Geográfica Imediata de Araguaína, Região Geográfica Intermediária de Araguaína, Tocantins, Região Norte, 77765-000, Brasil;-7.7113784;-47.6743925
1703107;Barrolândia;Tocantins;TO;Norte;Barrolândia, Região Geográfica Imediata de Paraíso do Tocantins, Região Geográfica Intermediária de Palmas, Tocantins, Região Norte, 77665-000, Brasil;-9.837246;-48.7264346
1703206;Bernardo Sayão;Tocantins;TO;Norte;Bernardo Sayão, Região Geográfica Imediata de Colinas do Tocantins, Região Geográfica Intermediária de Araguaína, Tocantins, Região Norte, 77755-000, Brasil;-7.8794244;-48.8968905
1703305;Bom Jesus do Tocantins;Tocantins;TO;Norte;Bom Jesus do Tocantins, Região Geográfica Imediata de Guaraí, Região Geográfica Intermediária de Araguaína, Tocantins, Região Norte, 77714-000, Brasil;-8.96306;-48.165043
1703602;Brasilândia do Tocantins;Tocantins;TO;Norte;Brasilândia do Tocantins, Região Geográfica Imediata de Colinas do Tocantins, Região Geográfica Intermediária de Araguaína, Tocantins, Região Norte, 77735-000, Brasil;-8.3886619;-48.4842729
1703701;Brejinho de Nazaré;Tocantins;TO;Norte;Brejinho de Nazaré, Região Geográfica Imediata de Porto Nacional, Região Geográfica Intermediária de Palmas, Tocantins, Região Norte, 77560-000, Brasil;-11.0138265;-48.564626
1703800;Buriti do Tocantins;Tocantins;TO;Norte;Buriti do Tocantins, Região Geográfica Imediata de Araguatins, Região Geográfica Intermediária de Araguaína, Tocantins, Região Norte, 77995-000, Brasil;-5.3187439;-48.2256609
1703826;Cachoeirinha;Tocantins;TO;Norte;Cachoeirinha, Região Geográfica Imediata de Porto Alegre, Região Metropolitana de Porto Alegre, Região Geográfica Intermediária de Porto Alegre, Rio Grande do Sul, Região Sul, Brasil;-29.9493353;-51.0898927
1703842;Campos Lindos;Tocantins;TO;Norte;Campos Lindos, Região Geográfica Imediata de Araguaína, Região Geográfica Intermediária de Araguaína, Tocantins, Região Norte, 77777-000, Brasil;-7.9740597;-46.8023881
1703867;Cariri do Tocantins;Tocantins;TO;Norte;Cariri do Tocantins, Região Geográfica Imediata de Gurupi, Região Geográfica Intermediária de Gurupi, Tocantins, Região Norte, 77453-000, Brasil;-11.8882727;-49.1604216
1703883;Carmolândia;Tocantins;TO;Norte;Carmolândia, Região Geográfica Imediata de Araguaína, Região Geográfica Intermediária de Araguaína, Tocantins, Região Norte, 77840-000, Brasil;-7.033804;-48.3951295
1703891;Carrasco Bonito;Tocantins;TO;Norte;Carrasco Bonito, Região Geográfica Imediata de Araguatins, Região Geográfica Intermediária de Araguaína, Tocantins, Região Norte, 77985-000, Brasil;-5.3205734;-48.0376667
1703909;Caseara;Tocantins;TO;Norte;Caseara, Região Geográfica Imediata de Paraíso do Tocantins, Região Geográfica Intermediária de Palmas, Tocantins, Região Norte, 77680-000, Brasil;-9.273159;-49.9576837
1704105;Centenário;Tocantins;TO;Norte;Centenário, Região Geográfica Imediata de Guaraí, Região Geográfica Intermediária de Araguaína, Tocantins, Região Norte, 77723-000, Brasil;-8.9586893;-47.3355181
1704600;Chapada de Areia;Tocantins;TO;Norte;Chapada de Areia, Região Geográfica Imediata de Paraíso do Tocantins, Região Geográfica Intermediária de Palmas, Tocantins, Região Norte, 77575-000, Brasil;-10.1417377;-49.1781853
1705102;Chapada da Natividade;Tocantins;TO;Norte;Chapada da Natividade, Região Geográfica Imediata de Porto Nacional, Região Geográfica Intermediária de Palmas, Tocantins, Região Norte, Brasil;-11.6119239;-47.7538517
1705508;Colinas do Tocantins;Tocantins;TO;Norte;Colinas do Tocantins, Região Geográfica Imediata de Colinas do Tocantins, Região Geográfica Intermediária de Araguaína, Tocantins, Região Norte, 77760-000, Brasil;-8.0612688;-48.4716768
1705557;Combinado;Tocantins;TO;Norte;Combinado, Região Geográfica Imediata de Dianópolis, Região Geográfica Intermediária de Gurupi, Tocantins, Região Norte, 77350-000, Brasil;-12.8136581;-46.5461041
1705607;Conceição do Tocantins;Tocantins;TO;Norte;Conceição do Tocantins, Região Geográfica Imediata de Dianópolis, Região Geográfica Intermediária de Gurupi, Tocantins, Região Norte, 77305-000, Brasil;-12.220874;-47.295103
1706001;Couto Magalhães;Tocantins;TO;Norte;Couto Magalhães, Região Geográfica Imediata de Guaraí, Região Geográfica Intermediária de Araguaína, Tocantins, Região Norte, 77750-000, Brasil;-8.360583;-49.1773955
1706100;Cristalândia;Tocantins;TO;Norte;Cristalândia, Região Geográfica Imediata de Paraíso do Tocantins, Região Geográfica Intermediária de Palmas, Tocantins, Região Norte, 77490-000, Brasil;-10.59848;-49.194202
1706258;Crixás do Tocantins;Tocantins;TO;Norte;Crixás do Tocantins, Região Geográfica Imediata de Gurupi, Região Geográfica Intermediária de Gurupi, Tocantins, Região Norte, 77463-000, Brasil;-11.1039404;-48.918827
1706506;Darcinópolis;Tocantins;TO;Norte;Darcinópolis, Região Geográfica Imediata de Araguaína, Região Geográfica Intermediária de Araguaína, Tocantins, Região Norte, 77910-000, Brasil;-6.7085964;-47.7524283
1707009;Dianópolis;Tocantins;TO;Norte;Dianópolis, Região Geográfica Imediata de Dianópolis, Região Geográfica Intermediária de Gurupi, Tocantins, Região Norte, 77300-000, Brasil;-11.624008;-46.819787
1707108;Divinópolis do Tocantins;Tocantins;TO;Norte;Divinópolis do Tocantins, Região Geográfica Imediata de Paraíso do Tocantins, Região Geográfica Intermediária de Palmas, Tocantins, Região Norte, 77670-000, Brasil;-9.8015722;-49.2143531
1707207;Dois Irmãos do Tocantins;Tocantins;TO;Norte;Dois Irmãos do Tocantins, Região Geográfica Imediata de Miracema do Tocantins, Região Geográfica Intermediária de Palmas, Tocantins, Região Norte, 77685-000, Brasil;-9.2539897;-49.0665558
1707306;Dueré;Tocantins;TO;Norte;Dueré, Região Geográfica Imediata de Gurupi, Região Geográfica Intermediária de Gurupi, Tocantins, Região Norte, 77485-000, Brasil;-11.341631;-49.271566
1707405;Esperantina;Tocantins;TO;Norte;Esperantina, Região Geográfica Imediata de Araguatins, Região Geográfica Intermediária de Araguaína, Tocantins, Região Norte, 77993-000, Brasil;-5.3658232;-48.5368181
1707553;Fátima;Tocantins;TO;Norte;Fátima, Região Geográfica Imediata de Porto Nacional, Região Geográfica Intermediária de Palmas, Tocantins, Região Norte, 77555-000, Brasil;-10.7575656;-48.9031328
1707652;Figueirópolis;Tocantins;TO;Norte;Figueirópolis, Região Geográfica Imediata de Gurupi, Região Geográfica Intermediária de Gurupi, Tocantins, Região Norte, 77465-000, Brasil;-12.1347916;-49.1737141
1707702;Filadélfia;Tocantins;TO;Norte;Filadélfia, Região Geográfica Imediata de Araguaína, Região Geográfica Intermediária de Araguaína, Tocantins, Região Norte, 77795-000, Brasil;-7.3395833;-47.496372
1708205;Formoso do Araguaia;Tocantins;TO;Norte;Formoso do Araguaia, Região Geográfica Imediata de Gurupi, Região Geográfica Intermediária de Gurupi, Tocantins, Região Norte, 77470-000, Brasil;-11.8059989;-49.5257153
1708254;Tabocão;Tocantins;TO;Norte;Tabocão, Região Geográfica Imediata de Guaraí, Região Geográfica Intermediária de Araguaína, Tocantins, Região Norte, 77708-000, Brasil;-9.0565211;-48.5216745
1708304;Goianorte;Tocantins;TO;Norte;Goianorte, Região Geográfica Imediata de Guaraí, Região Geográfica Intermediária de Araguaína, Tocantins, Região Norte, 77695-000, Brasil;-8.7720092;-48.9340879
1709005;Goiatins;Tocantins;TO;Norte;Goiatins, Região Geográfica Imediata de Araguaína, Região Geográfica Intermediária de Araguaína, Tocantins, Região Norte, 77770-000, Brasil;-7.7132054;-47.3154841
1709302;Guaraí;Tocantins;TO;Norte;Guaraí, Região Geográfica Imediata de Guaraí, Região Geográfica Intermediária de Araguaína, Tocantins, Região Norte, 77700-000, Brasil;-8.835429;-48.511432
1709500;Gurupi;Tocantins;TO;Norte;Gurupi, Região Geográfica Imediata de Gurupi, Região Geográfica Intermediária de Gurupi, Tocantins, Região Norte, Brasil;-11.72794;-49.068046
1709807;Ipueiras;Tocantins;TO;Norte;Ipueiras, Região Geográfica Imediata de Porto Nacional, Região Geográfica Intermediária de Palmas, Tocantins, Região Norte, 77553-000, Brasil;-11.2408008;-48.4438878
1710508;Itacajá;Tocantins;TO;Norte;Itacajá, Região Geográfica Imediata de Colinas do Tocantins, Região Geográfica Intermediária de Araguaína, Tocantins, Região Norte, 77720-000, Brasil;-8.392935;-47.772615
1710706;Itaguatins;Tocantins;TO;Norte;Itaguatins, Região Geográfica Imediata de Araguatins, Região Geográfica Intermediária de Araguaína, Tocantins, Região Norte, Brasil;-5.7696766;-47.4815382
1710904;Itapiratins;Tocantins;TO;Norte;Itapiratins, Região Geográfica Imediata de Colinas do Tocantins, Região Geográfica Intermediária de Araguaína, Tocantins, Região Norte, Brasil;-8.3832116;-48.1054968
1711100;Itaporã do Tocantins;Tocantins;TO;Norte;Itaporã do Tocantins, Região Geográfica Imediata de Guaraí, Região Geográfica Intermediária de Araguaína, Tocantins, Região Norte, 77740-000, Brasil;-8.571722;-48.689481
1711506;Jaú do Tocantins;Tocantins;TO;Norte;Jaú do Tocantins, Região Geográfica Imediata de Gurupi, Região Geográfica Intermediária de Gurupi, Tocantins, Região Norte, 77450-000, Brasil;-12.6526649;-48.5922532
1711803;Juarina;Tocantins;TO;Norte;Juarina, Região Geográfica Imediata de Colinas do Tocantins, Região Geográfica Intermediária de Araguaína, Tocantins, Região Norte, 77753-000, Brasil;-8.1194209;-49.0967459
1711902;Lagoa da Confusão;Tocantins;TO;Norte;Lagoa da Confusão, Região Geográfica Imediata de Paraíso do Tocantins, Região Geográfica Intermediária de Palmas, Tocantins, Região Norte, 77493-000, Brasil;-10.7883045;-49.6224431
1711951;Lagoa do Tocantins;Tocantins;TO;Norte;Lagoa do Tocantins, Região Geográfica Imediata de Palmas, Região Geográfica Intermediária de Palmas, Tocantins, Região Norte, 77613-000, Brasil;-10.2967881;-47.566253
1712009;Lajeado;Tocantins;TO;Norte;Lajeado, Região Geográfica Imediata de Palmas, Região Geográfica Intermediária de Palmas, Tocantins, Região Norte, 77645-000, Brasil;-9.7548945;-48.3563706
1712157;Lavandeira;Tocantins;TO;Norte;Lavandeira, Região Geográfica Imediata de Dianópolis, Região Geográfica Intermediária de Gurupi, Tocantins, Região Norte, 77328-000, Brasil;-12.7887924;-46.5073198
1712405;Lizarda;Tocantins;TO;Norte;Lizarda, Região Geográfica Imediata de Palmas, Região Geográfica Intermediária de Palmas, Tocantins, Região Norte, 77630-000, Brasil;-9.5955336;-46.675218
1712454;Luzinópolis;Tocantins;TO;Norte;Luzinópolis, Região Geográfica Imediata de Tocantinópolis, Região Geográfica Intermediária de Araguaína, Tocantins, Região Norte, 77903-000, Brasil;-6.1918183;-47.8562036
1712504;Marianópolis do Tocantins;Tocantins;TO;Norte;Marianópolis do Tocantins, Região Geográfica Imediata de Paraíso do Tocantins, Região Geográfica Intermediária de Palmas, Tocantins, Região Norte, 77675-000, Brasil;-9.7962503;-49.6547174
1712702;Mateiros;Tocantins;TO;Norte;Mateiros, Região Geográfica Imediata de Palmas, Região Geográfica Intermediária de Palmas, Tocantins, Região Norte, 77593-000, Brasil;-10.5462254;-46.417423
1712801;Maurilândia do Tocantins;Tocantins;TO;Norte;Maurilândia do Tocantins, Região Geográfica Imediata de Tocantinópolis, Região Geográfica Intermediária de Araguaína, Tocantins, Região Norte, 77918-000, Brasil;-5.951688;-47.512492
1713205;Miracema do Tocantins;Tocantins;TO;Norte;Miracema do Tocantins, Região Geográfica Imediata de Miracema do Tocantins, Região Geográfica Intermediária de Palmas, Tocantins, Região Norte, 77650-000, Brasil;-9.5617939;-48.3966536
1713304;Miranorte;Tocantins;TO;Norte;Miranorte, Região Geográfica Imediata de Miracema do Tocantins, Região Geográfica Intermediária de Palmas, Tocantins, Região Norte, 77660-000, Brasil;-9.529068;-48.592222
1713601;Monte do Carmo;Tocantins;TO;Norte;Monte do Carmo, Região Geográfica Imediata de Porto Nacional, Região Geográfica Intermediária de Palmas, Tocantins, Região Norte, 77585-000, Brasil;-10.7647456;-48.1121813
1713700;Monte Santo do Tocantins;Tocantins;TO;Norte;Monte Santo do Tocantins, Região Geográfica Imediata de Paraíso do Tocantins, Região Geográfica Intermediária de Palmas, Tocantins, Região Norte, 77673-000, Brasil;-10.0051944;-48.9927531
1713809;Palmeiras do Tocantins;Tocantins;TO;Norte;Palmeiras do Tocantins, Região Geográfica Imediata de Tocantinópolis, Região Geográfica Intermediária de Araguaína, Tocantins, Região Norte, 77913-000, Brasil;-6.6096035;-47.546399
1713957;Muricilândia;Tocantins;TO;Norte;Muricilândia, Região Geográfica Imediata de Araguaína, Região Geográfica Intermediária de Araguaína, Tocantins, Região Norte, Brasil;-7.14669;-48.609135
1714203;Natividade;Tocantins;TO;Norte;Natividade, Região Geográfica Imediata de Porto Nacional, Região Geográfica Intermediária de Palmas, Tocantins, Região Norte, 77370-000, Brasil;-11.7089881;-47.7284165
1714302;Nazaré;Tocantins;TO;Norte;Nazaré, Região Geográfica Imediata de Tocantinópolis, Região Geográfica Intermediária de Araguaína, Tocantins, Região Norte, 77895-000, Brasil;-6.3733313;-47.6632702
1714880;Nova Olinda;Tocantins;TO;Norte;Nova Olinda, Região Geográfica Imediata de Araguaína, Região Geográfica Intermediária de Araguaína, Tocantins, Região Norte, 77790-000, Brasil;-7.631712;-48.425232
1715002;Nova Rosalândia;Tocantins;TO;Norte;Nova Rosalândia, Região Geográfica Imediata de Paraíso do Tocantins, Região Geográfica Intermediária de Palmas, Tocantins, Região Norte, 77495-000, Brasil;-10.565102;-48.912477
1715101;Novo Acordo;Tocantins;TO;Norte;Novo Acordo, Região Geográfica Imediata de Palmas, Região Geográfica Intermediária de Palmas, Tocantins, Região Norte, 77610-000, Brasil;-9.964658;-47.6762804
1715150;Novo Alegre;Tocantins;TO;Norte;Novo Alegre, Região Geográfica Imediata de Dianópolis, Região Geográfica Intermediária de Gurupi, Tocantins, Região Norte, 77353-000, Brasil;-12.915134;-46.5740939
1715259;Novo Jardim;Tocantins;TO;Norte;Novo Jardim, Região Geográfica Imediata de Dianópolis, Região Geográfica Intermediária de Gurupi, Tocantins, Região Norte, 77318-000, Brasil;-11.8199253;-46.6254107
1715507;Oliveira de Fátima;Tocantins;TO;Norte;Oliveira de Fátima, Região Geográfica Imediata de Porto Nacional, Região Geográfica Intermediária de Palmas, Tocantins, Região Norte, 77558-000, Brasil;-10.7091365;-48.9077446
1715705;Palmeirante;Tocantins;TO;Norte;Palmeirante, Região Geográfica Imediata de Colinas do Tocantins, Região Geográfica Intermediária de Araguaína, Tocantins, Região Norte, 77798-000, Brasil;-7.8582335;-47.9264382
1715754;Palmeirópolis;Tocantins;TO;Norte;Palmeirópolis, Região Geográfica Imediata de Gurupi, Região Geográfica Intermediária de Gurupi, Tocantins, Região Norte, 77365-000, Brasil;-13.0428105;-48.4065223
1716109;Paraíso do Tocantins;Tocantins;TO;Norte;Paraíso do Tocantins, Região Geográfica Imediata de Paraíso do Tocantins, Região Geográfica Intermediária de Palmas, Tocantins, Região Norte, 77600-000, Brasil;-10.1752474;-48.886759
1716208;Paranã;Tocantins;TO;Norte;Paranã, Região Geográfica Imediata de Gurupi, Região Geográfica Intermediária de Gurupi, Tocantins, Região Norte, 77360-000, Brasil;-12.616747;-47.873378
1716307;Pau D'Arco;Tocantins;TO;Norte;Pau d'Arco, Região Geográfica Imediata de Araguaína, Região Geográfica Intermediária de Araguaína, Tocantins, Região Norte, 77785-000, Brasil;-7.5416832;-49.3686216
1716505;Pedro Afonso;Tocantins;TO;Norte;Pedro Afonso, Região Geográfica Imediata de Guaraí, Região Geográfica Intermediária de Araguaína, Tocantins, Região Norte, 77710-000, Brasil;-8.9757351;-48.1733282
1716604;Peixe;Tocantins;TO;Norte;Peixe, Região Geográfica Imediata de Gurupi, Região Geográfica Intermediária de Gurupi, Tocantins, Região Norte, 77460-000, Brasil;-12.0390993;-48.5392455
1716653;Pequizeiro;Tocantins;TO;Norte;Pequizeiro, Região Geográfica Imediata de Guaraí, Região Geográfica Intermediária de Araguaína, Tocantins, Região Norte, 77730-000, Brasil;-8.594846;-48.9332775
1716703;Colméia;Tocantins;TO;Norte;Colméia, Região Geográfica Imediata de Guaraí, Região Geográfica Intermediária de Araguaína, Tocantins, Região Norte, 77725-000, Brasil;-8.734098;-48.7510897
1717008;Pindorama do Tocantins;Tocantins;TO;Norte;Pindorama do Tocantins, Região Geográfica Imediata de Porto Nacional, Região Geográfica Intermediária de Palmas, Tocantins, Região Norte, 77380-000, Brasil;-11.131074;-47.57263
1717206;Piraquê;Tocantins;TO;Norte;Piraquê, Região Geográfica Imediata de Araguaína, Região Geográfica Intermediária de Araguaína, Tocantins, Região Norte, 77888-000, Brasil;-6.769831;-48.2945507
1717503;Pium;Tocantins;TO;Norte;Pium, Região Geográfica Imediata de Paraíso do Tocantins, Região Geográfica Intermediária de Palmas, Tocantins, Região Norte, 77570-000, Brasil;-10.4421368;-49.1747741
1717800;Ponte Alta do Bom Jesus;Tocantins;TO;Norte;Ponte Alta do Bom Jesus, Região Geográfica Imediata de Dianópolis, Região Geográfica Intermediária de Gurupi, Tocantins, Região Norte, 77315-000, Brasil;-12.0873615;-46.4785732
1717909;Ponte Alta do Tocantins;Tocantins;TO;Norte;Ponte Alta do Tocantins, Região Geográfica Imediata de Porto Nacional, Região Geográfica Intermediária de Palmas, Tocantins, Região Norte, 77590-000, Brasil;-10.7454591;-47.5374479
1718006;Porto Alegre do Tocantins;Tocantins;TO;Norte;Porto Alegre do Tocantins, Região Geográfica Imediata de Dianópolis, Região Geográfica Intermediária de Gurupi, Tocantins, Região Norte, 77395-000, Brasil;-11.6070802;-47.052627
1718204;Porto Nacional;Tocantins;TO;Norte;Porto Nacional, Região Geográfica Imediata de Porto Nacional, Região Geográfica Intermediária de Palmas, Tocantins, Região Norte, 77500-000, Brasil;-10.7019786;-48.4110952
1718303;Praia Norte;Tocantins;TO;Norte;Praia Norte, Região Geográfica Imediata de Araguatins, Região Geográfica Intermediária de Araguaína, Tocantins, Região Norte, 77970-000, Brasil;-5.392812;-47.811144
1718402;Presidente Kennedy;Tocantins;TO;Norte;Presidente Kennedy, Região Geográfica Imediata de Guaraí, Região Geográfica Intermediária de Araguaína, Tocantins, Região Norte, 77745-000, Brasil;-8.5340643;-48.5060747
1718451;Pugmil;Tocantins;TO;Norte;Pugmil, Região Geográfica Imediata de Paraíso do Tocantins, Região Geográfica Intermediária de Palmas, Tocantins, Região Norte, 77603-000, Brasil;-10.4255161;-48.8969824
1718501;Recursolândia;Tocantins;TO;Norte;Recursolândia, Região Geográfica Imediata de Guaraí, Região Geográfica Intermediária de Araguaína, Tocantins, Região Norte, 77733-000, Brasil;-8.7368677;-47.2416349
1718550;Riachinho;Tocantins;TO;Norte;Riachinho, Região Geográfica Imediata de Araguaína, Região Geográfica Intermediária de Araguaína, Tocantins, Região Norte, 77893-000, Brasil;-6.4426372;-48.137969
1718659;Rio da Conceição;Tocantins;TO;Norte;Rio da Conceição, Região Geográfica Imediata de Dianópolis, Região Geográfica Intermediária de Gurupi, Tocantins, Região Norte, 77303-000, Brasil;-11.394863;-46.884664
1718709;Rio dos Bois;Tocantins;TO;Norte;Rio dos Bois, Região Geográfica Imediata de Miracema do Tocantins, Região Geográfica Intermediária de Palmas, Tocantins, Região Norte, 77655-000, Brasil;-9.3412231;-48.5349207
1718758;Rio Sono;Tocantins;TO;Norte;Rio Sono, Região Geográfica Imediata de Palmas, Região Geográfica Intermediária de Palmas, Tocantins, Região Norte, Brasil;-9.3442508;-47.8998831
1718808;Sampaio;Tocantins;TO;Norte;Sampaio, Região Geográfica Imediata de Araguatins, Região Geográfica Intermediária de Araguaína, Tocantins, Região Norte, 77980-000, Brasil;-5.354233;-47.878184
1718840;Sandolândia;Tocantins;TO;Norte;Sandolândia, Região Geográfica Imediata de Gurupi, Região Geográfica Intermediária de Gurupi, Tocantins, Região Norte, 77478-000, Brasil;-12.5389465;-49.9285958
1718865;Santa Fé do Araguaia;Tocantins;TO;Norte;Santa Fé do Araguaia, Região Geográfica Imediata de Araguaína, Região Geográfica Intermediária de Araguaína, Tocantins, Região Norte, 77848-000, Brasil;-7.150072;-48.6925943
1718881;Santa Maria do Tocantins;Tocantins;TO;Norte;Santa Maria do Tocantins, Região Geográfica Imediata de Guaraí, Região Geográfica Intermediária de Araguaína, Tocantins, Região Norte, 77716-000, Brasil;-8.7752144;-47.7482956
1718899;Santa Rita do Tocantins;Tocantins;TO;Norte;Santa Rita do Tocantins, Região Geográfica Imediata de Porto Nacional, Região Geográfica Intermediária de Palmas, Tocantins, Região Norte, 77565-000, Brasil;-10.8643623;-48.9082979
1718907;Santa Rosa do Tocantins;Tocantins;TO;Norte;Santa Rosa do Tocantins, Região Geográfica Imediata de Porto Nacional, Região Geográfica Intermediária de Palmas, Tocantins, Região Norte, 77375-000, Brasil;-11.447392;-48.121627
1719004;Santa Tereza do Tocantins;Tocantins;TO;Norte;Santa Tereza do Tocantins, Região Geográfica Imediata de Palmas, Região Geográfica Intermediária de Palmas, Tocantins, Região Norte, 77615-000, Brasil;-10.2816205;-47.8091871
1720002;Santa Terezinha do Tocantins;Tocantins;TO;Norte;Santa Terezinha do Tocantins, Região Geográfica Imediata de Tocantinópolis, Região Geográfica Intermediária de Araguaína, Tocantins, Região Norte, 77885-000, Brasil;-6.4356048;-47.673061
1720101;São Bento do Tocantins;Tocantins;TO;Norte;São Bento do Tocantins, Região Geográfica Imediata de Araguatins, Região Geográfica Intermediária de Araguaína, Tocantins, Região Norte, 77958-000, Brasil;-6.021853;-47.900057
1720150;São Félix do Tocantins;Tocantins;TO;Norte;São Félix do Tocantins, Região Geográfica Imediata de Palmas, Região Geográfica Intermediária de Palmas, Tocantins, Região Norte, 77605-000, Brasil;-10.161465;-46.661786
1720200;São Miguel do Tocantins;Tocantins;TO;Norte;São Miguel do Tocantins, Região Geográfica Imediata de Araguatins, Região Geográfica Intermediária de Araguaína, Tocantins, Região Norte, 77925-000, Brasil;-5.5549817;-47.5747649
1720259;São Salvador do Tocantins;Tocantins;TO;Norte;São Salvador do Tocantins, Região Geográfica Imediata de Gurupi, Região Geográfica Intermediária de Gurupi, Tocantins, Região Norte, 77368-000, Brasil;-12.7503331;-48.2352148
1720309;São Sebastião do Tocantins;Tocantins;TO;Norte;São Sebastião do Tocantins, Região Geográfica Imediata de Araguatins, Região Geográfica Intermediária de Araguaína, Tocantins, Região Norte, 77990-000, Brasil;-5.2587094;-48.2055574
1720499;São Valério;Tocantins;TO;Norte;São Valério, Região Geográfica Imediata de Gurupi, Região Geográfica Intermediária de Gurupi, Tocantins, Região Norte, 77390-000, Brasil;-11.974315;-48.235315
1720655;Silvanópolis;Tocantins;TO;Norte;Silvanópolis, Região Geográfica Imediata de Porto Nacional, Região Geográfica Intermediária de Palmas, Tocantins, Região Norte, 77580-000, Brasil;-11.1513516;-48.1711295
1720804;Sítio Novo do Tocantins;Tocantins;TO;Norte;Sítio Novo do Tocantins, Região Geográfica Imediata de Araguatins, Região Geográfica Intermediária de Araguaína, Tocantins, Região Norte, 77940-000, Brasil;-5.6028662;-47.6349901
1720853;Sucupira;Tocantins;TO;Norte;Sucupira, Região Geográfica Imediata de Gurupi, Região Geográfica Intermediária de Gurupi, Tocantins, Região Norte, 77458-000, Brasil;-11.9850885;-48.9113689
1720903;Taguatinga;Tocantins;TO;Norte;Taguatinga, Região Geográfica Imediata de Dianópolis, Região Geográfica Intermediária de Gurupi, Tocantins, Região Norte, 77320-000, Brasil;-12.402404;-46.4365769
1720937;Taipas do Tocantins;Tocantins;TO;Norte;Taipas do Tocantins, Região Geográfica Imediata de Dianópolis, Região Geográfica Intermediária de Gurupi, Tocantins, Região Norte, 77308-000, Brasil;-12.193349;-46.9918003
1720978;Talismã;Tocantins;TO;Norte;Talismã, Região Geográfica Imediata de Gurupi, Região Geográfica Intermediária de Gurupi, Tocantins, Região Norte, 77483-000, Brasil;-12.797836;-49.0929839
1721000;Palmas;Tocantins;TO;Norte;Palmas, Região Geográfica Imediata de Palmas, Região Geográfica Intermediária de Palmas, Tocantins, Região Norte, Brasil;-10.1837852;-48.3336423
1721109;Tocantínia;Tocantins;TO;Norte;Tocantínia, Região Geográfica Imediata de Miracema do Tocantins, Região Geográfica Intermediária de Palmas, Tocantins, Região Norte, 77640-000, Brasil;-9.563198;-48.374104
1721208;Tocantinópolis;Tocantins;TO;Norte;Tocantinópolis, Região Geográfica Imediata de Tocantinópolis, Região Geográfica Intermediária de Araguaína, Tocantins, Região Norte, 77900-000, Brasil;-6.3280931;-47.4217673
1721257;Tupirama;Tocantins;TO;Norte;Tupirama, Região Geográfica Imediata de Guaraí, Região Geográfica Intermediária de Araguaína, Tocantins, Região Norte, 77704-000, Brasil;-8.9746528;-48.1887392
1721307;Tupiratins;Tocantins;TO;Norte;Tupiratins, Região Geográfica Imediata de Colinas do Tocantins, Região Geográfica Intermediária de Araguaína, Tocantins, Região Norte, 77743-000, Brasil;-8.3996247;-48.1299635
1722081;Wanderlândia;Tocantins;TO;Norte;Wanderlândia, Região Geográfica Imediata de Araguaína, Região Geográfica Intermediária de Araguaína, Tocantins, Região Norte, 77860-000, Brasil;-6.8522727;-47.9653917
1722107;Xambioá;Tocantins;TO;Norte;Xambioá, Região Geográfica Imediata de Araguaína, Região Geográfica Intermediária de Araguaína, Tocantins, Região Norte, 77880-000, Brasil;-6.4084693;-48.5336069
2100055;Açailândia;Maranhão;MA;Nordeste;Açailândia, Região Geográfica Imediata de Açailândia, Região Geográfica Intermediária de Imperatriz, Maranhão, Região Nordeste, 65930-000, Brasil;-4.9514278;-47.4844564
2100105;Afonso Cunha;Maranhão;MA;Nordeste;Afonso Cunha, Região Geográfica Imediata de Caxias, Região Geográfica Intermediária de Caxias, Maranhão, Região Nordeste, 65505-000, Brasil;-4.1326105;-43.3230026
2100154;Água Doce do Maranhão;Maranhão;MA;Nordeste;Água Doce do Maranhão, Região Geográfica Imediata de Tutóia - Araioses, Região Geográfica Intermediária de São Luís, Maranhão, Região Nordeste, 65578-000, Brasil;-2.8402004;-42.1181949
2100204;Alcântara;Maranhão;MA;Nordeste;Alcântara, Região Geográfica Imediata de São Luís, Região Geográfica Intermediária de São Luís, Maranhão, Região Nordeste, 65250-000, Brasil;-2.4084996;-44.4174143
2100303;Aldeias Altas;Maranhão;MA;Nordeste;Aldeias Altas, Região Geográfica Imediata de Caxias, Região Geográfica Intermediária de Caxias, Maranhão, Região Nordeste, 65610-000, Brasil;-4.6291957;-43.4708622
2100402;Altamira do Maranhão;Maranhão;MA;Nordeste;Altamira do Maranhão, Região Geográfica Imediata de Bacabal, Região Geográfica Intermediária de Santa Inês-Bacabal, Maranhão, Região Nordeste, 65310-000, Brasil;-4.1643006;-45.4674574
2100436;Alto Alegre do Maranhão;Maranhão;MA;Nordeste;Alto Alegre do Maranhão, Região Geográfica Imediata de Bacabal, Região Geográfica Intermediária de Santa Inês-Bacabal, Maranhão, Região Nordeste, 65413-000, Brasil;-4.2055693;-44.4525287
2100477;Alto Alegre do Pindaré;Maranhão;MA;Nordeste;Alto Alegre do Pindaré, Região Geográfica Imediata de Santa Inês, Região Geográfica Intermediária de Santa Inês-Bacabal, Maranhão, Região Nordeste, 65398-000, Brasil;-3.6698186;-45.8462153
2100501;Alto Parnaíba;Maranhão;MA;Nordeste;Alto Parnaíba, Região Geográfica Imediata de Balsas, Região Geográfica Intermediária de Imperatriz, Maranhão, Região Nordeste, 65810-000, Brasil;-9.112506;-45.9310154
2100550;Amapá do Maranhão;Maranhão;MA;Nordeste;Amapá do Maranhão, Região Geográfica Imediata de Governador Nunes Freire, Região Geográfica Intermediária de Santa Inês-Bacabal, Maranhão, Região Nordeste, 65293-000, Brasil;-1.6762114;-46.0109669
2100600;Amarante do Maranhão;Maranhão;MA;Nordeste;Amarante do Maranhão, Região Geográfica Imediata de Imperatriz, Região Geográfica Intermediária de Imperatriz, Maranhão, Região Nordeste, 65923-000, Brasil;-5.56913;-46.747284
2100709;Anajatuba;Maranhão;MA;Nordeste;Anajatuba, Região Geográfica Imediata de Itapecuru Mirim, Região Geográfica Intermediária de São Luís, Maranhão, Região Nordeste, 65490-000, Brasil;-3.26441;-44.6179916
2100808;Anapurus;Maranhão;MA;Nordeste;Anapurus, Região Geográfica Imediata de Chapadinha, Região Geográfica Intermediária de São Luís, Maranhão, Região Nordeste, 65525-000, Brasil;-3.6751298;-43.1046001
2100832;Apicum-Açu;Maranhão;MA;Nordeste;Apicum-Açu, Região Geográfica Imediata de Cururupu, Região Geográfica Intermediária de São Luís, Maranhão, Região Nordeste, 65275-000, Brasil;-1.5279295;-45.082278
2100873;Araguanã;Maranhão;MA;Nordeste;Araguanã, Região Geográfica Imediata de Santa Inês, Região Geográfica Intermediária de Santa Inês-Bacabal, Maranhão, Região Nordeste, 65368-000, Brasil;-2.9508403;-45.6651986
2100907;Araioses;Maranhão;MA;Nordeste;Araioses, Região Geográfica Imediata de Tutóia - Araioses, Região Geográfica Intermediária de São Luís, Maranhão, Região Nordeste, 65570-000, Brasil;-2.890914;-41.904993
2100956;Arame;Maranhão;MA;Nordeste;Arame, Região Geográfica Imediata de Barra do Corda, Região Geográfica Intermediária de Imperatriz, Maranhão, Região Nordeste, 65945-000, Brasil;-4.8858769;-46.0102484
2101004;Arari;Maranhão;MA;Nordeste;Arari, Região Geográfica Imediata de Viana, Região Geográfica Intermediária de São Luís, Maranhão, Região Nordeste, 65480-000, Brasil;-3.4547602;-44.7772723
2101103;Axixá;Maranhão;MA;Nordeste;Axixá, Região Geográfica Imediata de São Luís, Região Geográfica Intermediária de São Luís, Maranhão, Região Nordeste, 65148-000, Brasil;-2.8379465;-44.0561053
2101202;Bacabal;Maranhão;MA;Nordeste;Bacabal, Região Geográfica Imediata de Bacabal, Região Geográfica Intermediária de Santa Inês-Bacabal, Maranhão, Região Nordeste, 65700-000, Brasil;-4.2318132;-44.781167
2101251;Bacabeira;Maranhão;MA;Nordeste;Bacabeira, Região Geográfica Imediata de São Luís, Região Geográfica Intermediária de São Luís, Maranhão, Região Nordeste, Brasil;-2.9786744;-44.3163504
2101301;Bacuri;Maranhão;MA;Nordeste;Bacuri, Região Geográfica Imediata de Cururupu, Região Geográfica Intermediária de São Luís, Maranhão, Região Nordeste, Brasil;-1.728894;-45.1417148
2101350;Bacurituba;Maranhão;MA;Nordeste;Bacurituba, Região Geográfica Imediata de Pinheiro, Região Geográfica Intermediária de São Luís, Maranhão, Região Nordeste, Brasil;-2.7082587;-44.7381309
2101400;Balsas;Maranhão;MA;Nordeste;Balsas, Região Geográfica Imediata de Balsas, Região Geográfica Intermediária de Imperatriz, Maranhão, Região Nordeste, 65800-000, Brasil;-7.53214;-46.037163
2101509;Barão de Grajaú;Maranhão;MA;Nordeste;Barão de Grajaú, Região Geográfica Imediata de São João dos Patos, Região Geográfica Intermediária de Presidente Dutra, Maranhão, Região Nordeste, 65660-000, Brasil;-6.7542591;-43.0263477
2101608;Barra do Corda;Maranhão;MA;Nordeste;Barra do Corda, Região Geográfica Imediata de Barra do Corda, Região Geográfica Intermediária de Imperatriz, Maranhão, Região Nordeste, 65950-000, Brasil;-5.496823;-45.248496
2101707;Barreirinhas;Maranhão;MA;Nordeste;Barreirinhas, Região Geográfica Imediata de Barreirinhas, Região Geográfica Intermediária de São Luís, Maranhão, Região Nordeste, 65590-000, Brasil;-2.7541271;-42.8259693
2101731;Belágua;Maranhão;MA;Nordeste;Belágua, Região Geográfica Imediata de Chapadinha, Região Geográfica Intermediária de São Luís, Maranhão, Região Nordeste, 65535-000, Brasil;-3.1604031;-43.5085052
2101772;Bela Vista do Maranhão;Maranhão;MA;Nordeste;Bela Vista do Maranhão, Região Geográfica Imediata de Santa Inês, Região Geográfica Intermediária de Santa Inês-Bacabal, Maranhão, Região Nordeste, 65335-000, Brasil;-3.7416367;-45.2514192
2101806;Benedito Leite;Maranhão;MA;Nordeste;Benedito Leite, Região Geográfica Imediata de São João dos Patos, Região Geográfica Intermediária de Presidente Dutra, Maranhão, Região Nordeste, 65885-000, Brasil;-7.2173453;-44.5523331
2101905;Bequimão;Maranhão;MA;Nordeste;Bequimão, Região Geográfica Imediata de Pinheiro, Região Geográfica Intermediária de São Luís, Maranhão, Região Nordeste, 65248-000, Brasil;-2.4495376;-44.7884889
2101939;Bernardo do Mearim;Maranhão;MA;Nordeste;Bernardo do Mearim, Região Geográfica Imediata de Pedreiras, Região Geográfica Intermediária de Santa Inês-Bacabal, Maranhão, Região Nordeste, Brasil;-4.6315929;-44.7617508
2101970;Boa Vista do Gurupi;Maranhão;MA;Nordeste;Boa Vista do Gurupi, Região Geográfica Imediata de Governador Nunes Freire, Região Geográfica Intermediária de Santa Inês-Bacabal, Maranhão, Região Nordeste, 65292-000, Brasil;-1.7981168;-46.3071882
2102002;Bom Jardim;Maranhão;MA;Nordeste;Bom Jardim, Região Geográfica Imediata de Santa Inês, Região Geográfica Intermediária de Santa Inês-Bacabal, Maranhão, Região Nordeste, 65380-000, Brasil;-3.54129;-45.606004
2102036;Bom Jesus das Selvas;Maranhão;MA;Nordeste;Bom Jesus das Selvas, Região Geográfica Imediata de Açailândia, Região Geográfica Intermediária de Imperatriz, Maranhão, Região Nordeste, 65395-000, Brasil;-4.4878075;-46.8526639
2102077;Bom Lugar;Maranhão;MA;Nordeste;Bom Lugar, Região Geográfica Imediata de Bacabal, Região Geográfica Intermediária de Santa Inês-Bacabal, Maranhão, Região Nordeste, Brasil;-4.3728019;-45.0366054
2102101;Brejo;Maranhão;MA;Nordeste;Brejo, Região Geográfica Imediata de Chapadinha, Região Geográfica Intermediária de São Luís, Maranhão, Região Nordeste, 65520-000, Brasil;-3.6804397;-42.7529313
2102150;Brejo de Areia;Maranhão;MA;Nordeste;Brejo de Areia, Região Geográfica Imediata de Bacabal, Região Geográfica Intermediária de Santa Inês-Bacabal, Maranhão, Região Nordeste, Brasil;-4.3316785;-45.5833334
2102200;Buriti;Maranhão;MA;Nordeste;Buriti, Região Geográfica Imediata de Chapadinha, Região Geográfica Intermediária de São Luís, Maranhão, Região Nordeste, 65515-000, Brasil;-3.9430944;-42.9244281
2102309;Buriti Bravo;Maranhão;MA;Nordeste;Buriti Bravo, Região Geográfica Imediata de Timon, Região Geográfica Intermediária de Caxias, Maranhão, Região Nordeste, 65685-000, Brasil;-5.8391884;-43.8367876
2102325;Buriticupu;Maranhão;MA;Nordeste;Buriticupu, Região Geográfica Imediata de Açailândia, Região Geográfica Intermediária de Imperatriz, Maranhão, Região Nordeste, 65393-000, Brasil;-4.3227472;-46.4516989
2102358;Buritirana;Maranhão;MA;Nordeste;Buritirana, Região Geográfica Imediata de Imperatriz, Região Geográfica Intermediária de Imperatriz, Maranhão, Região Nordeste, 65935-500, Brasil;-5.5897455;-47.0148915
2102374;Cachoeira Grande;Maranhão;MA;Nordeste;Cachoeira Grande, Região Geográfica Imediata de São Luís, Região Geográfica Intermediária de São Luís, Maranhão, Região Nordeste, 65165-000, Brasil;-2.9290492;-44.0573223
2102408;Cajapió;Maranhão;MA;Nordeste;Cajapió, Região Geográfica Imediata de Viana, Região Geográfica Intermediária de São Luís, Maranhão, Região Nordeste, 65230-000, Brasil;-2.8778715;-44.6746871
2102507;Cajari;Maranhão;MA;Nordeste;Cajari, Região Geográfica Imediata de Viana, Região Geográfica Intermediária de São Luís, Maranhão, Região Nordeste, 65210-000, Brasil;-3.3213076;-45.0118757
2102556;Campestre do Maranhão;Maranhão;MA;Nordeste;Campestre do Maranhão, Região Geográfica Imediata de Imperatriz, Região Geográfica Intermediária de Imperatriz, Maranhão, Região Nordeste, 65968-000, Brasil;-6.1729113;-47.3640512
2102606;Cândido Mendes;Maranhão;MA;Nordeste;Cândido Mendes, Região Geográfica Imediata de Governador Nunes Freire, Região Geográfica Intermediária de Santa Inês-Bacabal, Maranhão, Região Nordeste, 65280-000, Brasil;-1.4531117;-45.7273136
2102705;Cantanhede;Maranhão;MA;Nordeste;Cantanhede, Região Geográfica Imediata de Itapecuru Mirim, Região Geográfica Intermediária de São Luís, Maranhão, Região Nordeste, 65465-000, Brasil;-3.6355005;-44.3778738
2102754;Capinzal do Norte;Maranhão;MA;Nordeste;Capinzal do Norte, Região Geográfica Imediata de Pedreiras, Região Geográfica Intermediária de Santa Inês-Bacabal, Maranhão, Região Nordeste, 65735-000, Brasil;-4.7304006;-44.3249063
